id,name,area,lat,lng,last_updated
237673487,Hong_Kong_Convention_and_Exhibition_Centre,caroline-hill-hong-kong,22.2820613991,114.1717830408,1543151072
214488576,Central_District_Hong_Kong,chung-wan-hong-kong,22.2833,114.15,1543131555
213512017,Sky_Terrace_428_The_Peak_Hong_Kong_Site,chung-wan-hong-kong,22.2712335972,114.1501356917,1543150523
228406210,Hong_Kong_Victoria_Peak,chung-wan-hong-kong,22.2710040142,114.1500867088,1543150882
17574196,Times_Square_Hong_Kong,caroline-hill-hong-kong,22.2786811903,114.1822857077,1543150671
235386997,PMQ_,chung-wan-hong-kong,22.2833498094,114.1520513599,1543150779
1286667968120188,Victoria_Harbour_Hong_Kong,chung-wan-hong-kong,22.2833,114.15,1543150962
10338634,Causeway_Bay,caroline-hill-hong-kong,22.2805406431,114.1850508506,1543150813
214376515,Causeway_Bay_,caroline-hill-hong-kong,22.2802281037,114.1835930819,1543137154
617229129,The_Hong_Kong_Victoria_Peak_,chung-wan-hong-kong,22.2700667216,114.1497590335,1543146794
213145970,Victoria_Harbour,caroline-hill-hong-kong,22.2877527778,114.1736194444,1534218621
213164255,Avenue_of_Stars_Hong_Kong,hung-kan-hong-kong,22.2931,114.175,1543150185
211372268,Victoria_Park_Hong_Kong,caroline-hill-hong-kong,22.2817166667,114.1889138889,1543150612
213767759,The_Hong_Kong_Polytechnic_University,hung-kan-hong-kong,22.3035793395,114.1794295237,1543150513
337250781,Wan_Chai_District,caroline-hill-hong-kong,22.2796805556,114.1716805556,1543149138
20529,_Hong_Kong_Coliseum,hung-kan-hong-kong,22.3011665,114.1818896,1529098318
217564739,_Mongkok_Hongkong,mong-kok-hong-kong,22.3183918958,114.1701054621,1531664179
743061412,Mongkok_Hong_Kong,mong-kok-hong-kong,22.3199661271,114.1696458832,1514937824
215799617,Hong_Kong_Coliseum,hung-kan-hong-kong,22.3014239297,114.181974798,1543150827
13779393,Mong_Kok_Hong_Kong,mong-kok-hong-kong,22.3200565193,114.1700988109,1543142410
226651495,Victoria_Peak,chung-wan-hong-kong,22.2754694444,114.1438277778,1535167453
3002420,Victoria_Park_,caroline-hill-hong-kong,22.2816114757,114.18871778,1541723495
703662331,HappyHappyBirthday,kuan-tang-hong-kong,22.30924,114.22453,1543145417
214839221,Sheung_Wan_Hong_Kong,chung-wan-hong-kong,22.2876169166,114.1512768914,1543064157
214356763,Grand_Hyatt_Hong_Kong,caroline-hill-hong-kong,22.2811941458,114.172115922,1543151114
377816454,D2_Place,shan-shin-po-hong-kong,22.3360689834,114.1486626863,1543150844
214218626,Hong_Kong_Macau_Ferry_Terminal,chung-wan-hong-kong,22.28937222,114.15215278,1543151908
2440895,Hong_Kong_Baptist_University_,tung-tau-village-hong-kong,22.3384507839,114.1811480648,1543147587
703629436462521,Causeway_Bay_Hong_Kong,caroline-hill-hong-kong,22.2795620003,114.1833900517,1543138984
240040007,Soho_Central_HK,chung-wan-hong-kong,22.2822422115,114.1528517365,1542532991
340056234,Kai_Tak_Cruise_Terminal,kuan-tang-hong-kong,22.30749,114.21285,1543148291
127578221239566,Mongkok_Hongkong,mong-kok-hong-kong,22.3200565193,114.1700988109,1533362619
213577447,SOGO_Hong_Kong_,caroline-hill-hong-kong,22.28031,114.18412,1543145808
12467536,Hotel_ICON,hung-kan-hong-kong,22.3004725245,114.1797065735,1543149002
611395451,The_Peak_,chung-wan-hong-kong,22.270860613,114.1498254975,1531855975
214743110,Cordis_Hong_Kong_,mong-kok-hong-kong,22.3184143035,114.1685874406,1543151464
234726015,The_Peak_Tower_The_Peak_Hong_Kong_Site,chung-wan-hong-kong,22.2709987554,114.1499681647,1543147872
244921801,Happy_Valley_Racecourse,kuai-huo-ku-hong-kong,22.2723244502,114.1815876689,1543144991
359052843,Sha_Tin_Hong_Kong,sha-tin-tau-hong-kong,22.3833,114.183,1543152285
235890114,Mongkok_Hongkong,mong-kok-hong-kong,22.3190641755,114.1692554081,1543106880
219069774,The_Peak_Tram_The_Peak_Hong_Kong_Site,chung-wan-hong-kong,22.2711781947,114.1501060029,1543146794
225318838,Man_Mo_Temple,chung-wan-hong-kong,22.2842785431,114.1503104375,1543149076
268882955,Art_Basel_Hong_Kong,caroline-hill-hong-kong,22.2825284011,114.1722362572,1542976324
4066000,MegaBox,kuan-tang-hong-kong,22.3205400072,114.2083732888,1543151754
10160326,Kowloon_Shangri_La_Hong_Kong,hung-kan-hong-kong,22.2973213815,114.1769040615,1543150724
981641771933827,Kerry_Hotel_Hong_Kong,hung-kan-hong-kong,22.3013306675,114.1888570407,1543151672
213139185,Langham_Place_,mong-kok-hong-kong,22.3188,114.16841,1543147339
94798,The_Peak_Galleria_,chung-wan-hong-kong,22.2706926586,114.1498326979,1543148242
214918931,Ten_Thousand_Buddhas_Monastery,sha-tin-tau-hong-kong,22.3865480165,114.1860730599,1543143325
219792060,_Mongkok_Langham_Place,mong-kok-hong-kong,22.3184681047,114.1685317825,1488801586
759085,Hong_Kong_Convention_And_Exhibition_Centre_,caroline-hill-hong-kong,22.2819293457,114.172538898,1535364113
792901392,Mongkok,mong-kok-hong-kong,22.3184042398,114.1701768909,1543142410
1200667370043195,Madame_Tussauds_Hong_Kong,chung-wan-hong-kong,22.2712499,114.14981,1543151578
493027450,MOKO_,mong-kok-hong-kong,22.32408,114.17312,1543150705
217465578,_Olympian_City,mong-kok-hong-kong,22.3172894609,114.1617264797,1543152232
123791511,Via_Tokyo,caroline-hill-hong-kong,22.2796652625,114.1837406158,1542971373
222563274,Sham_Shui_Po_Hong_Kong,shan-shin-po-hong-kong,22.3333,114.15,1543073453
7342738,Harbour_Grand_Kowloon,hung-kan-hong-kong,22.3025838946,114.1922555751,1543150494
81154,_Kwun_Tong_Promenade,kuan-tang-hong-kong,22.3103397,114.2191937,1536937339
751096453,_Mong_Kok,mong-kok-hong-kong,22.3165826102,114.1707577183,1483954787
628334599,_,chung-wan-hong-kong,22.2863096828,114.1507143494,1543152934
1014288853,MacPherson_Stadium_,mong-kok-hong-kong,22.3186371545,114.1724395548,1543150244
213318401,_Victoria_Peak,chung-wan-hong-kong,22.2710219996,114.1499745808,1543146794
841813943,Cityplaza_Hong_Kong,kau-man-hong-kong,22.2866840888,114.2173647881,1543152879
220943830,Mid_Levels_Hong_Kong,chung-wan-hong-kong,22.2810115138,114.1497413856,1543140060
236756472,_,yau-yat-tsuen-hong-kong,22.3349183008,114.1633439269,1543135847
331377,Quarry_Bay_,kau-man-hong-kong,22.288905406,114.2100332547,1543153379
422637523,Dragon_Centre_,yau-yat-tsuen-hong-kong,22.33096,114.15992,1543149918
214328485,EMax_,sheung-yuen-leng-hong-kong,22.3238,114.20379,1543152707
225024,_Kam_Wah_Cafe,mong-kok-hong-kong,22.3222052367,114.1696285,1543124726
439235781,Lee_Tung_Street,caroline-hill-hong-kong,22.2756,114.172,1543153029
165430667357536,_,mong-kok-hong-kong,22.3182957,114.1686796,1539363487
218606134,Kwun_Tong_Hong_Kong,kuan-tang-hong-kong,22.3167,114.217,1540570693
8034,Telford_Plaza_,kuan-tang-hong-kong,22.3227200302,114.2133459507,1543151468
214164831,Hong_Kong_Science_Museum,hung-kan-hong-kong,22.3011470318,114.1772896507,1543145627
214254792,Mongkok_Ladies_Market_Hongkong,mong-kok-hong-kong,22.3179451183,114.1706213782,1543106880
238834425,Kowloonbay_International_Trade_Exhibition_Centre,sheung-yuen-leng-hong-kong,22.3239,114.204,1543151667
215759419,Hong_Kong_Museum_of_History,hung-kan-hong-kong,22.30159,114.17711,1543152033
215087857,Happy_Valley_Hong_Kong,kuai-huo-ku-hong-kong,22.2676,114.1855,1543131481
216461659,Hollywood_Road_Hong_kong,chung-wan-hong-kong,22.2854731865,114.148687747,1543152994
210799523,_Madame_Tussauds_Hong_Kong,chung-wan-hong-kong,22.27131769,114.1499422379,1543140042
62985385,_,caroline-hill-hong-kong,22.2791805,114.1860886,1543149584
1035606448,Omotesando_Koffee_Hong_Kong,caroline-hill-hong-kong,22.275714437,114.1723505975,1543152074
490329866,Causewaybay_Hk,caroline-hill-hong-kong,22.2812354791,114.185449279,1543138984
7780056,teakha_,chung-wan-hong-kong,22.28451,114.14843,1543141830
11550,InterContinental_Grand_Stanford_Hong_Kong,hung-kan-hong-kong,22.2990202694,114.1791060965,1543153429
879813,Langham_Place_,mong-kok-hong-kong,22.3188,114.16841,1485700566
228359844,Yau_Ma_Tei_Hong_Kong,mong-kok-hong-kong,22.3112330459,114.1706891864,1543073087
248084785,New_Town_Plaza,sha-tin-tau-hong-kong,22.381947,114.188309,1488513067
213732069,Lee_Gardens,caroline-hill-hong-kong,22.279607948,114.1839800178,1542971775
611207472,Central_Hong_Kong,chung-wan-hong-kong,22.2833,114.15,1543154184
739247233,Lady_M_Hong_Kong,kowloon-bay-hong-kong,22.3167,114.2,1543150637
236247686,Avenue_Of_Stars_Tsim_Sha_Tsui,hung-kan-hong-kong,22.2956657864,114.1762302492,1543144295
942903539,Hong_Kong_Times_Square,caroline-hill-hong-kong,22.2784901,114.1823425,1543144107
237202023,The_Peak_Hong_Kong,chung-wan-hong-kong,22.2714137769,114.1499113255,1529391202
215698377,The_Royal_Garden_,hung-kan-hong-kong,22.2983754928,114.1777317899,1543142514
620528742,Taikoo_Place,kau-man-hong-kong,22.2867330905,114.212244247,1543140860
113958,_Sing_Heung_Yuen,chung-wan-hong-kong,22.2841798478,114.15255247,1543134130
310120967,Jamies_Italian_Hong_Kong,caroline-hill-hong-kong,22.2789,114.18239,1543154351
414049518,New_Town_Plaza_,sha-tin-tau-hong-kong,22.381096178,114.1881930828,1543154058
214885488,Queen_Elizabeth_Stadium,caroline-hill-hong-kong,22.275431118,114.1789282138,1543151428
265846919,Tsim_Sha_Tsui_East_Ferry_Pier,hung-kan-hong-kong,22.2976,114.177,1543147123
212956023,The_Peak,chung-wan-hong-kong,22.270988188,114.1500682014,1543095852
215688084,Renaissance_Harbour_View_Hotel_Hong_Kong,caroline-hill-hong-kong,22.2814059684,114.1737820057,1543144214
331600190642713,Victoria_Peak,chung-wan-hong-kong,22.2711891557,114.150099102,1543137889
1020637722,Lee_Tung_Avenue_,kuai-huo-ku-hong-kong,22.2760155625,114.1723696106,1543153989
1020637722,Lee_Tung_Avenue_,caroline-hill-hong-kong,22.2760155625,114.1723696106,1543153989
316747136,_Kams_Roast_Goose,caroline-hill-hong-kong,22.2777405,114.1753082,1543147446
638244992,Wanchai_Hongkong,caroline-hill-hong-kong,22.2782238975,114.1770888706,1497692299
525982944,_,caroline-hill-hong-kong,22.28049,114.18137,1543146553
6941526,_Hysan_Place,caroline-hill-hong-kong,22.28,114.18335,1537561341
768639777,_,mong-kok-hong-kong,22.3180573612,114.1702172609,1531477173
24154,Taikoo_Shing_,kau-man-hong-kong,22.2862995623,114.2183062019,1543145348
878955962233899,Garden_of_Star_at_Hongkong,hung-kan-hong-kong,22.2962495351,114.1760276411,1543146798
1741395636149533,_Yamataka_Seafood_Market_Hong_Kong,caroline-hill-hong-kong,22.2834675842,114.1761875153,1543151446
1019061009,_,kuai-huo-ku-hong-kong,22.2667,114.183,1543154303
12692,Mongkok_,mong-kok-hong-kong,22.3184370479,114.169885172,1543106880
942139461,The_Park_Lane_Hong_Kong_a_Pullman_Hotel_,caroline-hill-hong-kong,22.28122,114.18658,1543150637
159753984,La_Vache,chung-wan-hong-kong,22.282641658,114.1527505831,1543136059
8075253,Fashion_Walk,caroline-hill-hong-kong,22.2803993,114.1851425,1543150282
214136148,Quarry_Bay,kau-man-hong-kong,22.2890720876,114.2118067584,1543140526
1747904125470644,_Big_Bang_Don,mong-kok-hong-kong,22.31672,114.17136,1543154845
222061603,_Ichiran,caroline-hill-hong-kong,22.2806506888,114.1813559723,1543102492
26728164,_,chung-wan-hong-kong,22.2844047866,114.1533606907,1543149305
234941297,Kwai_Chung_Plaza,fui-yiu-hong-kong,22.357816237,114.127748788,1543154809
57918,BurgeRoom,caroline-hill-hong-kong,22.281867101,114.1853673346,1543073769
1008994799,YUM_CHA_HK_,caroline-hill-hong-kong,22.2785905667,114.181817472,1543152468
222032246,Taikoo_Shing,kau-man-hong-kong,22.2863,114.218,1543155512
134031867,HeSheEat,mong-kok-hong-kong,22.3174487436,114.1728755977,1543121802
221974259,HONG_KONG_FOOTBALL_CLUB,kuai-huo-ku-hong-kong,22.2748980098,114.1818484143,1543149098
221974259,HONG_KONG_FOOTBALL_CLUB,caroline-hill-hong-kong,22.2748980098,114.1818484143,1543149098
107866688,_Kai_Tak_Cruise_Terminal,kuan-tang-hong-kong,22.3063126252,114.2136583333,1538042355
1009813729,VEA_Restaurant_Lounge,chung-wan-hong-kong,22.2851087812,114.1533289962,1543141045
317809691669701,_New_Beginning_Live,hung-kan-hong-kong,22.3011763115,114.1814149731,1541425612
12774484,Quinary,chung-wan-hong-kong,22.2827091,114.1528702,1543154798
235470482,Yardbird,chung-wan-hong-kong,22.2835730064,114.1502593146,1543155678
345210854,ATUM_Desserant,caroline-hill-hong-kong,22.2803,114.18169,1542422366
214074604,EAST_Hong_Kong,kau-man-hong-kong,22.2860844144,114.2161457496,1543145348
273350733,Rest_in_Peace,caroline-hill-hong-kong,22.279154,114.1847753,1543098420
330660159,Seasons_French_Restaurant,caroline-hill-hong-kong,22.2785892,114.1855774,1531547008
213540395,_Windsor_House,caroline-hill-hong-kong,22.280619001,114.1864143772,1536576421
8424,Plaza_Hollywood_,sheung-yuen-leng-hong-kong,22.34014755,114.2020224264,1543147026
339120397,Oddies_Foodies,chung-wan-hong-kong,22.28443,114.15196,1543141994
16308,Metroplaza_,fui-yiu-hong-kong,22.3575545798,114.1270925163,1543152549
259240097882797,Soho_,chung-wan-hong-kong,22.2810926619,114.1533199946,1543155555
212999563,The_Excelsior_Hong_Kong_,caroline-hill-hong-kong,22.2817708,114.1844419,1543140301
576911,Kowloon_City_,tung-tau-village-hong-kong,22.331360033,114.1886973381,1543144047
214493842,_Causeway_Place,caroline-hill-hong-kong,22.28035273,114.185173041,1543151962
217440684,Harbour_Plaza_Metropolis_,hung-kan-hong-kong,22.30144,114.18345,1543147869
213512849,The_Market_at_Hotel_ICON,hung-kan-hong-kong,22.3004335825,114.1796356725,1543136470
577060983,Bedrex,hung-kan-hong-kong,22.2999662777,114.1759836674,1543147120
70838049,_,hung-kan-hong-kong,22.301417,114.1820305,1543148883
313787349049962,Hysan_Place_,caroline-hill-hong-kong,22.2798407753,114.1839734371,1543154624
28833,Inn_side_out,caroline-hill-hong-kong,22.2776427459,114.1854025281,1543071296
312986653,Hysan_Place,caroline-hill-hong-kong,22.2798,114.184,1537561341
290482214,Ho_Lee_Fook,chung-wan-hong-kong,22.2830425327,114.1526453693,1543155198
1018747722,Shatin_Centre_Shatin_Plaza_,sha-tin-tau-hong-kong,22.3815415479,114.1889497402,1543147992
214064512,Wan_Chai_Sports_Ground,caroline-hill-hong-kong,22.281288,114.178022,1543145983
1752110145032797,Lady_M_Fashion_Walk,caroline-hill-hong-kong,22.28184,114.18568,1543155788
247005201,SHARI_SHARI_Kakigori_House_,caroline-hill-hong-kong,22.2780209,114.1867218,1543156475
1375902329197540,Flippers,caroline-hill-hong-kong,22.2795226212,114.1840043504,1543153106
1003067095,_,mong-kok-hong-kong,22.31715,114.17268,1543150836
265558634,Kowloon_Bay,kowloon-bay-hong-kong,22.3166666667,114.2,1543134603
258682990,Aberdeen_Street_Social,chung-wan-hong-kong,22.2832302263,114.1520976753,1543152615
431426513,_Seoul_Incheon_International_Airport,chung-wan-hong-kong,22.2833,114.15,1529043904
226203050,_,caroline-hill-hong-kong,22.2825001611,114.1724888208,1543136285
230196928,Hong_Kong_Exhibition_Centre_Wan_Chai,caroline-hill-hong-kong,22.283471794,114.1726179941,1543149674
1535132,_,chung-wan-hong-kong,22.2715,114.15,1543140354
157239,Wan_Chai_,caroline-hill-hong-kong,22.2779862072,114.1740077053,1530326818
1712207959087768,Victoria_Park_,caroline-hill-hong-kong,22.2814802328,114.1883353522,1529042373
116566855698650,_,kuan-tang-hong-kong,22.3114587454,114.2181083203,1543153657
9424,Sugar,kau-man-hong-kong,22.2860822479,114.2161065133,1543145348
221474230,Royal_Plaza_Hotel,mong-kok-hong-kong,22.32408,114.17312,1543147342
850706215,Wanchai_Hong_Kong,caroline-hill-hong-kong,22.2774460637,114.171174177,1529055006
179600,Mr_Steak_Buffet_la_minute,caroline-hill-hong-kong,22.2815964264,114.1841236033,1543151529
138088,_Hong_Kong_Jockey_Club_Happy_Valley_Racecourse,kuai-huo-ku-hong-kong,22.2721462419,114.1813252463,1542859922
260695627,Graham_Street,chung-wan-hong-kong,22.28278,114.15326,1543155831
108106,The_Pawn_Kitchen_by_Tom_Aikens,caroline-hill-hong-kong,22.2769127648,114.171837901,1543150341
120308848672845,Ladies_Market_Tung_Choi_St_Mongkok_Hong_Kong,mong-kok-hong-kong,22.3181067725,114.1707872106,1543154825
69484997,RO_NIN,chung-wan-hong-kong,22.28452,114.15243,1543140075
50526428,Hung_Hom_Hong_Kong,hung-kan-hong-kong,22.3028273451,114.1827478181,1543152449
388152,Fa_Yuen_Street_,mong-kok-hong-kong,22.32289,114.17028,1543061439
739699659,Mong_Kok,mong-kok-hong-kong,22.3200565193,114.1700988109,1543157201
1024123017,Double_Tap,sheung-yuen-leng-hong-kong,22.3385971,114.200164,1543143280
225255130,_Tai_Cheong_Bakery,chung-wan-hong-kong,22.2826367844,114.1537556557,1543148144
227074021,_,hung-kan-hong-kong,22.3011686946,114.181890718,1492259122
376875535,_Star_Hall,sheung-yuen-leng-hong-kong,22.3238233261,114.2031813243,1543067712
241255103,_Fook_Le_Model,yau-yat-tsuen-hong-kong,22.33124,114.15979,1534566432
787015583,Hung_Hom,hung-kan-hong-kong,22.3068239905,114.1837490496,1543154347
60578,Kwai_Tsing_Theatre_,fui-yiu-hong-kong,22.3563193961,114.1264675795,1543059087
18557274,Passion_by_Gerard_Dubois,caroline-hill-hong-kong,22.2756742028,114.1722500324,1543147053
1541934242715392,Noble_Station_,hung-kan-hong-kong,22.3004,114.17544,1543152807
1035627585,Ophelia,kuai-huo-ku-hong-kong,22.276379064,114.1722961559,1543118916
1035627585,Ophelia,caroline-hill-hong-kong,22.276379064,114.1722961559,1543118916
217901920,Goldfish_Market_,mong-kok-hong-kong,22.322346165,114.1698468071,1543152280
814642509,MR_MRS_FOX,kau-man-hong-kong,22.2874699,114.2114487,1543058541
113422509,_Ichiran_Hk,caroline-hill-hong-kong,22.280723849,114.1815378367,1543102492
352608889,Southorn_Stadium_,caroline-hill-hong-kong,22.27664,114.17289,1543155593
256798989,Langham_Place_Mong_Kok_Kowloon,mong-kok-hong-kong,22.3183074749,114.1686585912,1543156171
1069656,Whampoa_Garden_,hung-kan-hong-kong,22.3048966228,114.1898964374,1504949072
217149792,Nathan_Road,mong-kok-hong-kong,22.3099,114.171,1541425022
835034749,Broadway_Cinematheque_,mong-kok-hong-kong,22.3106727881,114.1688037581,1543139472
1609868772655843,Mong_Kok,mong-kok-hong-kong,22.3203648,114.169773,1543154609
357128663,Oldish,chung-wan-hong-kong,22.2845898,114.1487503,1542968229
11694212,Sinmei_Tea_,chung-wan-hong-kong,22.28627,114.15174,1526219868
1869311803383634,_,caroline-hill-hong-kong,22.2834495309,114.17264231,1537970748
28724,JCCAC_,yau-yat-tsuen-hong-kong,22.3347259332,114.1659285066,1543078598
254679218,Bibo,chung-wan-hong-kong,22.2843895,114.150032,1543142621
427973712,Little_Vegas,caroline-hill-hong-kong,22.27766,114.18226,1543156860
277342270,Sam_sui_po_Hongkong,yau-yat-tsuen-hong-kong,22.3301678416,114.1631562321,1542253175
3416481,Paw_Palace,caroline-hill-hong-kong,22.27878,114.18355,1542252537
32130,_Wai_Kee_Noodle_Cafe,yau-yat-tsuen-hong-kong,22.33155,114.16344,1543150543
257605511,_The_Peak,chung-wan-hong-kong,22.271048677,114.150017503,1543150546
589937796,The_Grand_Buffet,kuai-huo-ku-hong-kong,22.2747893942,114.1715967754,1543145609
214139103,Shelter_Italian_Bar_Restaurant,caroline-hill-hong-kong,22.2800007,114.1833496,1543151458
574007511,Kowloon_Bay_Hong_Kong,kowloon-bay-hong-kong,22.3216,114.1892,1543154421
230116317,_,caroline-hill-hong-kong,22.2817166667,114.1889138889,1543158186
42877,Amoy_Plaza_,kuan-tang-hong-kong,22.32392,114.21706,1543158001
438484,Ladies_Market_,mong-kok-hong-kong,22.3170076449,114.1710895382,1543106880
217398000,Hong_Kong_Heritage_Museum,sha-tin-tau-hong-kong,22.37712,114.18533,1532179230
1036694,_Hong_Kong_Macau_Ferry_Terminal,chung-wan-hong-kong,22.288559292,114.1519533114,1533889031
362244394,MTR,kuan-tang-hong-kong,22.3210061954,114.2140443962,1543158545
340001417,New_World_Millennium_Hong_Kong_Hotel_,hung-kan-hong-kong,22.29965,114.17963,1543126812
479489332,Hong_Kong_Disneyland,caroline-hill-hong-kong,22.2780852258,114.1840737526,1470839893
214140296,Jockey_Club_Creative_Arts_Centre,yau-yat-tsuen-hong-kong,22.3346,114.1656,1543078598
800735983,BlackStory_Select_Store,mong-kok-hong-kong,22.3232815055,114.1689240932,1542897027
236759510,Renaissance_Hong_Kong_Harbour_View_Hotel,caroline-hill-hong-kong,22.28071,114.17295,1543148373
274794322,Wanchai_Hongkong,caroline-hill-hong-kong,22.2772522536,114.1732865014,1488254434
1011841398,_feed_your_nerves,yau-yat-tsuen-hong-kong,22.32582,114.16747,1543145680
28045,_,yau-yat-tsuen-hong-kong,22.3293699288,114.166365947,1542424157
65154689,_Flower_Market,yau-yat-tsuen-hong-kong,22.3252866573,114.1718450384,1480596673
7617323,_,hung-kan-hong-kong,22.3000706175,114.1751868373,1543157354
357434,Artistree,kau-man-hong-kong,22.2866986797,114.212965791,1543139328
1871829813084719,Langham_Place,mong-kok-hong-kong,22.3183943372,114.1685890016,1543155670
287831592,_,hung-kan-hong-kong,22.3013937414,114.1819735979,1529219380
220465308,Regal_Kowloon_Hotel,hung-kan-hong-kong,22.2987595,114.1781387,1543146761
215575037,Caf_Deadend,chung-wan-hong-kong,22.2837067191,114.1485113056,1540388154
223145092,Nan_Lian_Garden_Diamond_Hill,sheung-yuen-leng-hong-kong,22.3391249727,114.2042397519,1543143285
1030353073,_65_Peel,chung-wan-hong-kong,22.2823,114.15215,1543136918
1452706804846723,_,hung-kan-hong-kong,22.3013444268,114.1819560069,1543147923
1794358897498642,Causeway_Bay,caroline-hill-hong-kong,22.2809,114.178,1495378893
1016503189,_Kyo_Hayashiya,caroline-hill-hong-kong,22.2796993233,114.1839507227,1542579770
36947779,Plaza_Hollywood,sheung-yuen-leng-hong-kong,22.340469635,114.2020011251,1543158363
705304,Charlie_Brown_Caf_,hung-kan-hong-kong,22.2994266393,114.1754762227,1466487341
1023054796,The_Drunken_Pot_,hung-kan-hong-kong,22.300993659,114.1758549213,1543154193
234838272,Royal_Hong_Kong_Yacht_Club_RHKYC_,caroline-hill-hong-kong,22.2841543302,114.1823353984,1543157341
1916343818688622,Yick_Cheong_Building,kau-man-hong-kong,22.284052849,114.212349713,1543159688
414933958,3rd_Space,chung-wan-hong-kong,22.2845661922,114.1476772541,1543158802
5029308,GREEN_at_Hotel_ICON,hung-kan-hong-kong,22.3010211555,114.1798101053,1543156599
238629488,Golden_Bauhinia_Square,caroline-hill-hong-kong,22.28426667,114.17375833,1543124578
1020090282,Buyway_hk,mong-kok-hong-kong,22.31864,114.16967,1543140107
41237946,Tea_Wood_,mong-kok-hong-kong,22.3177180197,114.1695624946,1516710398
234652332,Wan_Chai_Market,caroline-hill-hong-kong,22.2758640199,114.1737102508,1543137649
238841564,Yau_Ma_Tei_Fruit_Market,mong-kok-hong-kong,22.3122,114.168,1543138291
589718693,_,mong-kok-hong-kong,22.3161573,114.1706466,1543154376
372798499805559,Wanchai_Hongkong,mong-kok-hong-kong,22.3170509338,114.1718139648,1543155202
218614039,Sai_Wan_Ho_Hong_Kong,kau-man-hong-kong,22.2817706522,114.2233168189,1543115998
972477769529966,SKYE,caroline-hill-hong-kong,22.2817424931,114.1867499446,1543156701
216290912,IKEA,sha-tin-tau-hong-kong,22.38511,114.1879,1543139523
339260367,Sham_Shui_Po_District,yau-yat-tsuen-hong-kong,22.3307,114.162,1543142793
326622019,_,mong-kok-hong-kong,22.31563,114.17113,1543147111
234873893,The_Peak_Tower_,chung-wan-hong-kong,22.2710071851,114.1500019107,1529082625
214181045,Hong_Kong_Central_Library,caroline-hill-hong-kong,22.279918417,114.189655915,1543149401
247756831,Kowloon_Bay_,kuan-tang-hong-kong,22.324098784,114.214074354,1543134603
225223964,Crowne_Plaza_Hong_Kong_Causeway_Bay_,caroline-hill-hong-kong,22.2771306847,114.1824134815,1543113366
214950206,Hong_Kong_Arts_Centre,caroline-hill-hong-kong,22.280321434,114.170853409,1543159878
850246708,Kowloon_Walled_City_Park,tung-tau-village-hong-kong,22.332,114.19,1543147866
218387520,Tai_Hang_Hong_Kong,caroline-hill-hong-kong,22.277879002,114.1902554568,1543119445
26463857,Rosedale_Hotel_Kowloon_,mong-kok-hong-kong,22.3209388062,114.1622033363,1543135503
18462238,_Prince_Edward,mong-kok-hong-kong,22.3240468814,114.1682723119,1543109657
821000049,The_59_Tattoo_and_Barber_Shop,kowloon-bay-hong-kong,22.32003,114.19339,1543158631
384788006,Queen_Elizabeth_Hospital,ho-man-tin-hong-kong,22.30934,114.17561,1543149595
213463017,Mong_Kok_Station,mong-kok-hong-kong,22.31925,114.1693611111,1543159867
256849469,_,fui-yiu-hong-kong,22.3581842884,114.1275256132,1539273241
1024623257,Yum_Cha_,chung-wan-hong-kong,22.2857687795,114.1540756983,1543154086
1474671,Hotel_Icon_,hung-kan-hong-kong,22.3006154923,114.1797027883,1543087766
1042994,_,sheung-yuen-leng-hong-kong,22.3240825503,114.2041860673,1543139946
1029496314,Seafood_Room,caroline-hill-hong-kong,22.2811345792,114.1838908196,1499717423
214507484,The_Peak_Lookout_,chung-wan-hong-kong,22.2710888594,114.1494087099,1543140354
238791056,Shing_Mun_River,sha-tin-tau-hong-kong,22.3833,114.183,1543156231
219156406,_,caroline-hill-hong-kong,22.2777309043,114.1821163869,1543150630
259645390,_,kuan-tang-hong-kong,22.305086401,114.2151448645,1538042355
1025789122,hmv_kaf_,caroline-hill-hong-kong,22.281316266,114.1857278733,1543040600
1020664453,Mikiki,sheung-yuen-leng-hong-kong,22.333554308,114.196612992,1543156280
1019076302,Lai_Chikok_Kowloon_Hongkong,shan-shin-po-hong-kong,22.3340218232,114.1483444449,1543128251
101156423648525,ALTO,caroline-hill-hong-kong,22.2794733692,114.1814616752,1543116199
362446892,_,hung-kan-hong-kong,22.3014801002,114.1819966479,1529172679
212997006,_,caroline-hill-hong-kong,22.2806674051,114.1814078813,1543102492
15626204,_,kau-man-hong-kong,22.2841713541,114.2123416333,1543074939
413946529,apm,kuan-tang-hong-kong,22.3125,114.225,1543126018
213131798,_Seorae,hung-kan-hong-kong,22.30181,114.1753,1543062763
12722,_Neway_CEO,caroline-hill-hong-kong,22.2796822597,114.1870356152,1543143848
279032882602285,_,mong-kok-hong-kong,22.3166831655,114.1703172227,1543154609
213061263,_,yau-yat-tsuen-hong-kong,22.3276781086,114.1675615311,1542764664
279747179,Artbasel,caroline-hill-hong-kong,22.2831972421,114.172098313,1524150702
668501,Kwun_Tong_,kuan-tang-hong-kong,22.3149536,114.2182031,1536937339
216936174,Blue_Butcher_Meat_Specialist,chung-wan-hong-kong,22.2840125567,114.1507651189,1543161280
213157742,_TST_East,hung-kan-hong-kong,22.2997419477,114.1776147313,1541955480
1027780297,The_Stadium,kuan-tang-hong-kong,22.30969,114.2244,1543126636
216332082,One_Island_East,kau-man-hong-kong,22.2860555556,114.2133611111,1542975634
1683286325315542,Facebook,kau-man-hong-kong,22.2862889263,114.2134468218,1542991933
620802550,Cheung_Sha_Wan,shan-shin-po-hong-kong,22.3325,114.1477777778,1542531511
217837977,_,hung-kan-hong-kong,22.2991651857,114.178197529,1543158300
318991565,Magical_World_,hung-kan-hong-kong,22.29964,114.17707,1542639295
218416887,_Hung_Hom_Ferry_Pier,hung-kan-hong-kong,22.3015811246,114.1898867629,1543159967
420390336,Lugard_Road,chung-wan-hong-kong,22.2780231752,114.1469198626,1543111079
108698152909160,D2_Place_Two,shan-shin-po-hong-kong,22.3361814725,114.147593043,1543156611
217141973,WooLooMooLoo_Rooftop_Bar_31_F,caroline-hill-hong-kong,22.2777208612,114.1760893514,1499006116
1015105117,The_Optimist_Hong_Kong,caroline-hill-hong-kong,22.2780304,114.1759491,1543127994
263704621,Fleur_Fleur,caroline-hill-hong-kong,22.2785240432,114.1835306135,1542700788
824836195,URBAN_CAFE,mong-kok-hong-kong,22.31486,114.17047,1543064704
482645073,TAP_The_Ale_Project,mong-kok-hong-kong,22.3176131188,114.1725360794,1543153831
214285934,22_Ships,caroline-hill-hong-kong,22.276008416,114.170752124,1543035712
162314617476160,_,caroline-hill-hong-kong,22.2810226855,114.1884475661,1538019779
338129556,Kau_Kee_Restaurant,chung-wan-hong-kong,22.28423,114.152522,1543068190
79259130,Catalunya_Hong_Kong,caroline-hill-hong-kong,22.2768414534,114.1795316604,1518607854
250336613,OVOCafe,kuai-huo-ku-hong-kong,22.2745230771,114.1743225883,1543128766
213386855,_Broadway_Hollywood,sheung-yuen-leng-hong-kong,22.3400706824,114.2026333357,1543155418
431411467,Mrs_Pound,chung-wan-hong-kong,22.2850871483,114.1478935842,1543075916
312724230,_,caroline-hill-hong-kong,22.2758633955,114.17226073,1543157797
890981706,Pok_mon,mong-kok-hong-kong,24.7307469522,121.0921502689,1543160830
394248154,Sohofama,chung-wan-hong-kong,22.2832739424,114.1515206899,1543114446
1027007841,_Kwai_Chung_Plaza_7_11_,fui-yiu-hong-kong,22.3579344908,114.127779007,1539273241
612739282,_,caroline-hill-hong-kong,22.281200402,114.1889093344,1540633808
237095363,_Polytechnic_University,hung-kan-hong-kong,22.3039163835,114.1796012014,1543142209
309837979487107,Star_Hall_Kowloon_Bay_International_Trade_Exhibition_Centre,sheung-yuen-leng-hong-kong,22.3238549377,114.2032322415,1543139946
310849,_Jockey_Club_Auditorium,hung-kan-hong-kong,22.304683539,114.1803577892,1543158751
457039049,Pirata_Hong_Kong,caroline-hill-hong-kong,22.2780250699,114.1758344061,1543158871
235397639,Hollywood_Road_Central,mong-kok-hong-kong,22.3187291902,114.1680532136,1543154496
491591664,Burger_Circus,chung-wan-hong-kong,22.28196,114.15375,1543150340
1502841569790874,Ladies_Market_,mong-kok-hong-kong,22.3181919967,114.1706933008,1543161151
1031513790,_,caroline-hill-hong-kong,32.0836,72.6711,1543150939
217445395,_,mong-kok-hong-kong,22.3170981082,114.1704228728,1543162784
502973850,_,mong-kok-hong-kong,22.31627,114.16984,1543079538
2081741462050344,Samsen,kuai-huo-ku-hong-kong,22.27421,114.17406,1543156785
1007802713,Grassroots_Pantry,chung-wan-hong-kong,22.2837505,114.1507797,1543154984
215793857,Tai_Wai,sha-tin-tau-hong-kong,22.3774773444,114.1769374863,1543154371
705639340,URA,chung-wan-hong-kong,22.2850642324,114.1531085934,1542975778
213129280,Peak_Tower,chung-wan-hong-kong,22.271295223,114.1503132,1543140354
380419813,Seoulmate_Cafe,caroline-hill-hong-kong,22.2806456612,114.1828277755,1543158740
237800794,Victoria_Peak_Garden,chung-wan-hong-kong,22.2741,114.143,1543161416
9514775,_,mong-kok-hong-kong,22.3103,114.17031,1543158747
286818210,Knockbox_Coffee_Company,mong-kok-hong-kong,22.3177421459,114.1725682659,1543149502
1010830705,WOFT,mong-kok-hong-kong,22.31799,114.17333,1543152080
303342,Caf_Corridor,caroline-hill-hong-kong,22.27878,114.18219,1543071896
871138763039490,_,sha-tin-tau-hong-kong,22.3766258984,114.1858942154,1543161604
373258636,Working_Apparel_World,mong-kok-hong-kong,22.31673,114.17006,1543140580
50781,The_Lee_Gardens,caroline-hill-hong-kong,22.2785476689,114.1846626402,1502969797
1035941,Bubba_Gump_Shrimp_Company,chung-wan-hong-kong,22.2712124037,114.1501461659,1543146794
469335614,Kornhill_Plaza_,kau-man-hong-kong,22.28478,114.21572,1543160685
236028698,Harbour_Plaza_8_Degrees_8_,kowloon-bay-hong-kong,22.32287,114.19057,1543153328
217360205,SCAD_Hong_Kong,yau-yat-tsuen-hong-kong,22.3352746062,114.162777491,1543157143
357916951315281,Discovery_Bay,caroline-hill-hong-kong,22.2809,114.178,1543153930
1033957205,Kwun_Tong_Promenade,kuan-tang-hong-kong,22.3094,114.2194,1543140446
264520698,HOLY_CHEF,shan-shin-po-hong-kong,22.3408992374,114.1548815619,1524189935
337457072,Yau_Ma_Tei_Station,mong-kok-hong-kong,22.3129959892,114.1706963965,1543153442
1015418935,Affordable_Art_Fair_Hong_Kong,caroline-hill-hong-kong,22.2821838845,114.1722709102,1542379350
214334100,_,mong-kok-hong-kong,22.31146,114.17009,1543077523
270914796,_,sheung-yuen-leng-hong-kong,22.3239,114.204,1543159871
214294436,Sha_Tin_Town_Hall,sha-tin-tau-hong-kong,22.3813888889,114.19,1543156072
235998099,_,chung-wan-hong-kong,22.2887896466,114.1520561578,1488471038
1022802125,Garden_of_Stars_Tsim_Sha_Tsui_Hong_Kong,hung-kan-hong-kong,22.2961946084,114.1758872171,1537098291
7794048,The_Cityview_Hong_Kong,mong-kok-hong-kong,22.3137594847,114.1717402679,1543162496
25518758,Eslite_bookstore_,caroline-hill-hong-kong,22.2802044001,114.1838373612,1487913293
392147587,Hidden_Agenda,kuan-tang-hong-kong,22.3158,114.216,1542995035
258819670,Central_and_Western_District,chung-wan-hong-kong,22.2830555556,114.15,1543163041
213088485,Hong_Kong_Convention_and_Exhibition_Centre,caroline-hill-hong-kong,22.2821953576,114.1724951802,1535364113
412868180,Hong_Kong_Sanatorium_Hospital,kuai-huo-ku-hong-kong,22.26933,114.1833,1543154491
496590198,Urban_Cafe_Commune,mong-kok-hong-kong,22.3230347955,114.1723257632,1543076078
131484441,_,caroline-hill-hong-kong,22.2807421257,114.1814985868,1543102492
1306204,The_Harbourview_Hong_Kong,caroline-hill-hong-kong,22.28031,114.17105,1543154723
257364732,Hung_Hom_Kowloon_Hong_Kong,hung-kan-hong-kong,22.3081793,114.1870045,1543154347
228406494,MCL_,kuan-tang-hong-kong,22.3228339159,114.2126345428,1543124920
213053091,pentahotels,sheung-yuen-leng-hong-kong,22.33728,114.1997,1543079321
214336855,CHARLIE_BROWN_CAFE_Official_Page_,hung-kan-hong-kong,22.2996324696,114.1754250005,1543160832
236285870,Kwai_Chung_Hong_Kong,fui-yiu-hong-kong,22.35,114.133,1543148440
226186297,_HKJC_Racing_Club,kuai-huo-ku-hong-kong,22.2724154405,114.1812882905,1542865126
477367392,Mount_Parker_Hong_Kong,kau-man-hong-kong,22.2819060896,114.2128522854,1543135509
277535414,_,caroline-hill-hong-kong,22.2807604985,114.1729970105,1535364113
15825175,_,caroline-hill-hong-kong,22.2805252518,114.1833761976,1543156782
402053089,Trick_Eye_Museum_Hong_Kong,chung-wan-hong-kong,22.2705691947,114.1498716095,1542784645
228328804,Above_Beyond_at_Hotel_ICON,hung-kan-hong-kong,22.3007196089,114.1799682922,1543156904
534740,Totts_and_Roof_Terrace_at_The_Excelsior_Hong_Kong,caroline-hill-hong-kong,22.2821693,114.1842422,1543158438
217924928,Dragon_Centre,yau-yat-tsuen-hong-kong,22.3311,114.16,1543120994
1019051140,ZUC_CCH_ERO,caroline-hill-hong-kong,22.2776604,114.1822586,1543146119
239363037,Sham_Shui_Po_Sports_Ground,shan-shin-po-hong-kong,22.3370676,114.1521415,1543162001
922158094590383,_Lee_Tung_Avenue,caroline-hill-hong-kong,22.2757308252,114.1723013442,1543157797
237663473,Kam_Shan_Country_Park,shan-shin-po-hong-kong,22.3443915775,114.15432708,1543139004
478003238,_,hung-kan-hong-kong,22.3014014563,114.1820121198,1543161417
242942443,Mongkok_Sneaker_Street,mong-kok-hong-kong,22.3185306658,114.1708830029,1543106889
214113076,_Shugetsu,chung-wan-hong-kong,22.28418,114.15286,1543156955
280357385,Art_Basel,mong-kok-hong-kong,22.323765939,114.16290755,1524150702
223202524,Bo_Innovation_X_treme_Chinese_Cuisine,caroline-hill-hong-kong,22.2763,114.1711,1543098901
224658337,Nan_Lian_Garden,sheung-yuen-leng-hong-kong,22.3391249727,114.2042397519,1543153329
417145789,Wong_Tai_Sin_District,sheung-yuen-leng-hong-kong,22.3335,114.197,1543162055
242914678,Innovation_Tower,hung-kan-hong-kong,22.3053259627,114.1792667649,1543161341
152114965338401,_Fara_xoxo,shan-shin-po-hong-kong,22.3396067941,114.1527852416,1543156898
213555739,IKEA,kuan-tang-hong-kong,22.3204763374,114.208305169,1543162391
1670345489941355,am_pm_Hong_Kong,mong-kok-hong-kong,22.31449,114.17052,1543162640
217392663,_,shan-shin-po-hong-kong,22.33696,114.14753,1543064137
1022844094,Garden_of_Stars,hung-kan-hong-kong,22.2962374703,114.1759900818,1537098291
1018471273,_,kuan-tang-hong-kong,22.31279,114.2247,1543161433
220496034,WTC_,caroline-hill-hong-kong,22.2819746578,114.1838119268,1543162869
977906318,Line_Friends_Store,caroline-hill-hong-kong,22.2797075,114.1839946,1543137995
1022826419,Sodam_Chicken,caroline-hill-hong-kong,22.27766,114.18226,1543160370
234969395,Kowloon_Tsai_Park,tung-tau-village-hong-kong,22.3328,114.183,1543155892
413176239025436,Pici_Hong_Kong,hung-kan-hong-kong,22.3816269318,114.1892015934,1543132105
219163392,_,mong-kok-hong-kong,22.318025781,114.1705211278,1543135071
474151049594610,Hong_Kong_Island,caroline-hill-hong-kong,22.2809,114.178,1540648892
28062609,Wired_Cafe,caroline-hill-hong-kong,22.2803557714,114.183903954,1543119319
112654935991719,_Kam_Wah_Cafe_,mong-kok-hong-kong,22.32231,114.16971,1543109549
234772169,Dorsett_Mongkok_Hong_Kong,mong-kok-hong-kong,22.3213196,114.1621475,1543111057
601657091,Hongkong_City,shan-shin-po-hong-kong,22.3283171863,114.1532117934,1537025178
1022090170,MasterKama_,mong-kok-hong-kong,22.3177433749,114.1713488102,1542113694
1022090170,MasterKama_,caroline-hill-hong-kong,22.3177433749,114.1713488102,1542113694
236759374,Dorsett_Wanchai_Hong_Kong,kuai-huo-ku-hong-kong,22.2747470545,114.1795567304,1543161156
9989640,Lhotel_lan_,kuan-tang-hong-kong,22.3141909971,114.219002826,1543143196
339964619,Uppacase_,caroline-hill-hong-kong,22.2785210711,114.1834589839,1543046183
1535094680125210,1563_at_the_East,kuai-huo-ku-hong-kong,22.27491,114.17195,1543157011
559657949,Icremeria,caroline-hill-hong-kong,22.2806949212,114.1854106433,1542982247
237156770,Madam_Tussauds_Wax_Museum,chung-wan-hong-kong,22.2713046986,114.1499536874,1543074282
463553483,Brunch_Club_Supper,caroline-hill-hong-kong,22.27695,114.18154,1542648241
250398573,Sino_Centre,mong-kok-hong-kong,22.3160238157,114.1700687446,1543159831
213108974,Outback_Steakhouse,caroline-hill-hong-kong,22.2805901,114.1858597,1543160656
357023168087909,Flower_Market_Prince_Edward,mong-kok-hong-kong,22.3248709359,114.171548144,1543164833
978299,_,yau-yat-tsuen-hong-kong,22.33048,114.16122,1543130236
221046504,To_Kwa_Wan_Hong_Kong,ho-man-tin-hong-kong,22.3141458408,114.1882571949,1539945489
653449983,DK_Cuppa_Tea_Sheung_Wan,chung-wan-hong-kong,22.2874508,114.1498108,1543145543
220997165,_,caroline-hill-hong-kong,22.28208,114.18484,1543153597
358142911,Victoria_Park_Causeway_Bay_Hongkong,caroline-hill-hong-kong,22.2813968385,114.1868731303,1543155609
1843765,Grand_Hyatt_Steakhouse,caroline-hill-hong-kong,22.2804589719,114.1717944531,1543078585
1256189627751839,_,mong-kok-hong-kong,22.31692,114.16971,1543162999
249872711,Futago_HK_,caroline-hill-hong-kong,22.2787782409,114.1860879626,1542897509
999636972,_Hang_Seng_Management_College_HSMC_,sha-tin-tau-hong-kong,22.3797214103,114.2115815801,1542956669
227476225,Central_Mid_Levels_Escalator_Link,chung-wan-hong-kong,22.281719718,114.153136196,1543151455
236728365,Sham_Shui_Po_Station,yau-yat-tsuen-hong-kong,22.3307533992,114.1623651863,1543164139
155220383,Upper_Modern_Bistro,chung-wan-hong-kong,22.28523,114.14863,1543101310
44091,Hong_Kong_Science_Museum_,hung-kan-hong-kong,22.3014321835,114.1771119037,1543144736
113850844,Chachawan,chung-wan-hong-kong,22.285788759,114.1482780534,1543149424
2117450531824264,JUNON_,kuai-huo-ku-hong-kong,22.27452,114.17267,1543162439
265897784,Next_Station_Dessert,mong-kok-hong-kong,22.3174496,114.1726074,1517976215
1820172801607294,T_O_P_This_is_Our_Place,mong-kok-hong-kong,22.3205273551,114.1694498062,1543159672
525868078,_Touch_Mi_,hung-kan-hong-kong,22.301465335,114.181675877,1499408242
221423708,Hong_Kong_Baptist_Hospital,tung-tau-village-hong-kong,22.33996,114.17988,1543156233
213065480,_fullcupcafe_HongKong,mong-kok-hong-kong,22.3152,114.16981,1543068136
222778575,Tai_Koo_Sing_,kau-man-hong-kong,22.2866680838,114.2148397978,1543145348
872744512,_,mong-kok-hong-kong,22.31585,114.17197,1543164299
1024173785,Dazzling_Cafe_Garden,caroline-hill-hong-kong,22.2805717565,114.1865044075,1538395664
226335779,_The_Open_University_of_Hong_Kong_,ho-man-tin-hong-kong,22.316319978,114.179371758,1543164499
601936756651310,HOW,kuan-tang-hong-kong,22.31253,114.22329,1543135670
285216015266177,NOC_Coffee_Co_Gough_St_,chung-wan-hong-kong,22.2841724418,114.1525197029,1543158211
1884727865106169,_Olympian_City,mong-kok-hong-kong,22.317,114.16228,1543057288
227094851,Hooray_Bar_Restaurant,caroline-hill-hong-kong,22.2820200709,114.1838860853,1536313524
225599252,Argyle_Street_Mongkok_Hong_Kong,mong-kok-hong-kong,22.3196876712,114.1706012529,1543151522
215112636,_The_Chairman_Restaurant,chung-wan-hong-kong,22.2844876411,114.1527342796,1543157291
220564539,Hong_Kong_Jockey_Club_Happy_Valley_Clubhouse,kuai-huo-ku-hong-kong,22.2656867842,114.1863597895,1543130987
254668195,Victoria_Harbour_Hongkong,hung-kan-hong-kong,22.2953787167,114.1764502042,1501048135
230254396,Uchi_,sha-tin-tau-hong-kong,22.3764801,114.1780472,1543140898
100906005,Caf_Meal_MUJI,caroline-hill-hong-kong,22.2785091,114.183197,1543138356
863559943,_,mong-kok-hong-kong,22.3166294,114.1732178,1543161948
611089996,_,caroline-hill-hong-kong,22.2789227483,114.1821479298,1543101741
1008178405,_,tung-tau-village-hong-kong,22.3306,114.184,1543155119
225736610,One_Dim_Sum,yau-yat-tsuen-hong-kong,22.32554,114.16939,1543160985
227110052,IKEA,caroline-hill-hong-kong,22.2809033265,114.1864579084,1543164566
341188318,Hotel_s_v,hung-kan-hong-kong,22.3070205799,114.186012661,1543088376
674985912688558,_Mido_Cafe,mong-kok-hong-kong,22.3103,114.17031,1543135223
114094,_,tung-tau-village-hong-kong,22.3407028746,114.1812221722,1543111132
1233419486730288,Day_and_Nite_by_Master_Kama,mong-kok-hong-kong,22.31773,114.17126,1543139603
427806217417721,_,sha-tin-tau-hong-kong,22.3768925714,114.1857698967,1543130432
8543704,Ch_m_Ch_m,chung-wan-hong-kong,22.2824246379,114.1523924348,1543156675
223887837,The_Coffee_Academics_Wan_Chai,caroline-hill-hong-kong,22.2768402,114.1708679,1525521723
215012521,Olympian_City,mong-kok-hong-kong,22.3178214813,114.1603314549,1543160317
215710764,_360_,chung-wan-hong-kong,22.2712694948,114.1500973549,1543140354
297297345,_,mong-kok-hong-kong,22.3202081449,114.169554133,1543163141
252401671998698,_tigersugar,caroline-hill-hong-kong,22.2794269935,114.1853606701,1543165195
56873,Regal_Hongkong_Hotel_Unofficial,caroline-hill-hong-kong,22.2792741,114.1870806447,1543061885
718645069,Nun_Korean_Desserts_,mong-kok-hong-kong,22.3202990807,114.1703081131,1542894989
499479150419500,Wooloomooloo_Rooftop_Bar_Wan_Chai_Hong_Kong,caroline-hill-hong-kong,22.2777030423,114.1761117006,1543143907
1020714732,HMV_Causeway_Bay_Flagship_Store,caroline-hill-hong-kong,22.2813915582,114.1857303087,1543159985
281300649,Corner_Kitchen_Cafe,chung-wan-hong-kong,22.2857565357,114.1476649232,1543149830
1121495187939667,_San_Ka_La,caroline-hill-hong-kong,22.275753628,114.1799426079,1543146736
213532002,Hong_Kong_Museum_of_History_,hung-kan-hong-kong,22.3013888426,114.1772252946,1543152033
1023139048,_TWCarnival,kuan-tang-hong-kong,22.3079648752,114.2131115186,1521952672
238883824,Tai_Kok_Tsui_Hong_Kong,mong-kok-hong-kong,22.3215613591,114.164717842,1537086089
236701323,Sneaker_Street,mong-kok-hong-kong,22.318399095,114.1712608917,1543157548
1029989876,BELON,chung-wan-hong-kong,22.28162,114.15242,1543166524
3903996,_,yau-yat-tsuen-hong-kong,22.3318,114.1628,1543161985
520428448,Toolss,yau-yat-tsuen-hong-kong,22.3348598,114.1667023,1543134231
1030928960,1963_,caroline-hill-hong-kong,22.27683,114.17548,1542900741
286163038,_,hung-kan-hong-kong,22.3013934896,114.1816930124,1497064712
216351568,_Lok_Fu_Plaza,tung-tau-village-hong-kong,22.338283079,114.187017432,1538908718
225176017,Tiffin_at_Grand_Hyatt_Hong_Kong,caroline-hill-hong-kong,22.2813728454,114.1721534729,1543062230
213615107,Ham_Sherry,caroline-hill-hong-kong,22.27633,114.17096,1543145836
903657509,Hong_Kong_Sports_Institute,sha-tin-tau-hong-kong,22.398102,114.206185,1543051912
226513537,DORAYA_Causeway_Bay_,caroline-hill-hong-kong,22.2800359391,114.1815408909,1543077676
213054611,Happy_Wednesday,kuai-huo-ku-hong-kong,22.2729464284,114.1816468001,1543092251
276308873,Brew_Bros_Coffee,chung-wan-hong-kong,22.28479,114.1510162,1543162515
631641016998489,NeNe_Chicken_Hong_Kong,mong-kok-hong-kong,22.3188,114.16841,1543115834
228351163,Tsim_Sha_Tsui_Promenade,hung-kan-hong-kong,22.2962483149,114.1767261834,1541955480
214336452,Diocesan_Boys_School,mong-kok-hong-kong,22.3232334683,114.1741332018,1543059395
338135581,Prince_Edward_Station,mong-kok-hong-kong,22.3245,114.168,1543160927
22926706,_,mong-kok-hong-kong,22.31627,114.16984,1543079538
116527896,MG_Cafe,kuan-tang-hong-kong,22.313,114.21715,1543039799
234825462,Tate_Dining_Room_Bar,chung-wan-hong-kong,22.2809823273,114.1526681581,1543152881
1017789701,Why_50,chung-wan-hong-kong,22.28521,114.15131,1543071225
214158873,Little_Break_Coffee_and_Kitchen,shan-shin-po-hong-kong,22.3358130564,114.14859858,1542853725
214486619,Regal_Hongkong_Hotel,caroline-hill-hong-kong,22.27898,114.1867,1543104404
567390427,Oolaa,chung-wan-hong-kong,22.2833019395,114.1511636224,1543162793
148577,Snoopys_World,sha-tin-tau-hong-kong,22.3819580699,114.1892978889,1488534857
525448557,_,caroline-hill-hong-kong,22.2776,114.17711,1543167007
215193974,_Chicken_HOF_SOJU,hung-kan-hong-kong,22.3024135497,114.1755983,1519998350
532894066897192,Chi_Chi_Cham_,chung-wan-hong-kong,22.28267,114.15257,1543160075
1024617150,Quarry_Bay_Park,kau-man-hong-kong,22.2889,114.217,1543153971
432800214,Neighborhood,chung-wan-hong-kong,22.2832884595,114.1529381283,1543155527
28102481,_,caroline-hill-hong-kong,22.28,114.18335,1494172483
280635188,Joyful_Dessert_House,mong-kok-hong-kong,22.3177109,114.1727905,1542981569
234813092,La_Salle_College,tung-tau-village-hong-kong,22.3290485827,114.1826666536,1543159850
1088720601225838,_Suppa,caroline-hill-hong-kong,22.27929,114.18203,1543153602
229030096,_,caroline-hill-hong-kong,22.2803965909,114.182677042,1543152579
253504365,Modern_Times_HK,chung-wan-hong-kong,22.2867734351,114.1507440805,1543161846
214849082,Hopewell_Centre,kuai-huo-ku-hong-kong,22.2746018018,114.1718339846,1543139898
135066200593399,_,kuan-tang-hong-kong,22.31192,114.22252,1543152924
502843849,EAT_it,caroline-hill-hong-kong,22.28186,114.18596,1543103030
216999504,_,hung-kan-hong-kong,22.2980141448,114.1791346865,1543131026
223774177,208_Duecento_Otto,chung-wan-hong-kong,22.2857589644,114.1481873494,1543152871
1016910761,rcMart_com,kuan-tang-hong-kong,22.3119,114.22084,1543128187
285989633,School_Food_At_New_Town_Plaza,sha-tin-tau-hong-kong,22.3822133752,114.1892513698,1518934323
237849124,_MOFO_Tattoo,hung-kan-hong-kong,22.3011028489,114.1754257679,1543155912
258669835,Royal_Park_Hotel,sha-tin-tau-hong-kong,22.3795633124,114.1885383911,1543139833
690806002,Lucycoffeenfood,yau-yat-tsuen-hong-kong,22.3368728136,114.160155952,1543121357
1003594343,Stage_hair_salon,hung-kan-hong-kong,22.29941,114.17511,1543127111
4183531,Yick_Fat_Bldg,kau-man-hong-kong,22.2839020218,114.2123781173,1543132468
1015665178,Coffee_Jobs,mong-kok-hong-kong,22.316436898,114.173150107,1543161024
969833426462656,Djapa,caroline-hill-hong-kong,22.2752597019,114.1723144054,1543038590
1013953839,TeaWood_,mong-kok-hong-kong,22.31772,114.16987,1543160217
239881397,Waterloo_Road_Hong_Kong,ho-man-tin-hong-kong,22.3181139389,114.1755072334,1543142387
216491716,_,tung-tau-village-hong-kong,22.3385915086,114.1906435809,1543152776
215798558,_,yau-yat-tsuen-hong-kong,22.3310952081,114.1632920081,1543161377
1410034772636809,kikusan,caroline-hill-hong-kong,22.2802171786,114.1839403752,1543142162
215558249,Maryknoll_Convent_School,tung-tau-village-hong-kong,22.3278431491,114.1797407393,1543164162
399516407,_Makee,chung-wan-hong-kong,22.28585,114.15255,1543160809
1331056,The_Vine_Church,caroline-hill-hong-kong,22.2766819,114.1763458,1543152055
1029349667,Le_Pain_Quotidien_Hong_Kong,caroline-hill-hong-kong,22.27651,114.1723602,1543149398
217910921,Sky_Terrace_428_,chung-wan-hong-kong,22.2713587402,114.1499131789,1543159568
1304210026290607,Wonder_Garden_Cafe_,mong-kok-hong-kong,22.31525,114.17005,1542982341
587113725,Shatin_Newtown_Plaza_Hongkong,sha-tin-tau-hong-kong,22.3817434687,114.1884953205,1543128515
15010,Megabox,kuan-tang-hong-kong,22.3206754903,114.2086852971,1483163930
1024452169,Lok_Wah_Estate,kuan-tang-hong-kong,22.3218,114.22,1543161620
148696332203738,_,yau-yat-tsuen-hong-kong,22.32539,114.16793,1543150968
225311736,_,chung-wan-hong-kong,22.2861414463,114.149832776,1543122730
7274846,_Neway,mong-kok-hong-kong,22.32025,114.16949,1543161626
244514911,_,mong-kok-hong-kong,22.32017,114.17048,1543081075
2209109,_,shan-shin-po-hong-kong,22.3391186618,114.1533521763,1543151906
347133844,Yaumatei_Kowloon_Hongkong,mong-kok-hong-kong,22.3123653614,114.1704446699,1543137915
987766309,NOC_Graham_St_,chung-wan-hong-kong,22.2830158777,114.1537481546,1543137997
766013353,_Lo_Fung_Restaurant,yau-yat-tsuen-hong-kong,22.3286896,114.162323,1543125682
464663701,_,caroline-hill-hong-kong,22.2760155625,114.1723696106,1543159063
876662445,Langham_Place,mong-kok-hong-kong,22.3184116036,114.1685527992,1532348589
1014021151,_Xiao_Tian_Gu_Ma_Ma,kau-man-hong-kong,22.28541,114.21789,1538491836
1019623992,Is_Land_Cafe,kuan-tang-hong-kong,22.31058,114.225,1543134888
757438859,Scarlett_Hong_Kong,hung-kan-hong-kong,22.3022523365,114.1765395446,1543162035
1032157311,Givr_s,caroline-hill-hong-kong,22.2758826938,114.1723519564,1543157797
1027210468,LRCF_Fitness_Box_HK,mong-kok-hong-kong,22.32475,114.16472,1543123370
974071385,Outdark,mong-kok-hong-kong,22.3171501,114.1696625,1542028232
236812991,Western_Market,chung-wan-hong-kong,22.28723,114.1504,1543154346
246361399,Check_In_Taipei,chung-wan-hong-kong,22.2821650967,114.153835404,1543123258
698958325,Amico1890,mong-kok-hong-kong,22.3177299,114.1722031,1543069938
343494826136761,_,kau-man-hong-kong,22.2842233375,114.212367672,1543164452
556865923,YAKINIKU_GREAT,chung-wan-hong-kong,22.2847172033,114.1512101414,1543156069
1014111125,_,chung-wan-hong-kong,22.2877197,114.1495209,1543130388
1017273699,_,caroline-hill-hong-kong,22.280409681,114.1824537636,1543162770
235570609,Kwun_Tong_Ferry_Pier,kuan-tang-hong-kong,22.3063,114.222,1543140118
857272404,Oldish,kuan-tang-hong-kong,22.312566487,114.2233750393,1539112731
282888861,The_Woods,chung-wan-hong-kong,22.2821726137,114.1537864267,1543056184
328348747504689,Frantz_n_s_Kitchen,chung-wan-hong-kong,22.28497,114.14814,1543166903
1023528029,Cordis_Hotel_at_Langham_Place,mong-kok-hong-kong,22.3182398951,114.1682179309,1543158517
257060214,_Ocean_Park,ho-man-tin-hong-kong,22.315905622,114.179135546,1506795938
861108444,Victoria_Peak_Top_Of_Hong_Kong,chung-wan-hong-kong,22.270919932,114.1500178449,1531707802
961863,_,mong-kok-hong-kong,22.3189911469,114.170315532,1506447230
227568309,_,chung-wan-hong-kong,22.2859246798,114.1499087928,1543026415
6727717,_Hui_Lau_Shan,caroline-hill-hong-kong,22.2777728016,114.1737237333,1543160909
226388623,Happy_Valley_Sports_Ground,kuai-huo-ku-hong-kong,22.2724657781,114.1826634026,1543113202
1575343092693499,Buta_Anime_Shop,mong-kok-hong-kong,22.31884,114.16732,1543161067
218527156,_,yau-yat-tsuen-hong-kong,22.3342332821,114.163853891,1543139512
32000,Flying_Pan,caroline-hill-hong-kong,22.2783824992,114.1714582528,1543039893
229205722,Lai_King_Station,fui-yiu-hong-kong,22.3484,114.1261,1543120542
252636137,_,mong-kok-hong-kong,22.32143,114.16946,1543155000
495713,Caine_Road_,chung-wan-hong-kong,22.2812490266,114.1523276172,1543120698
1014765303,OVOCafe_Central,chung-wan-hong-kong,22.2860182,114.154,1535695763
264351997,MacPherson_Stadium,mong-kok-hong-kong,22.3185765358,114.1723198705,1543158631
284651461,_Paradise_Group_Hong_Kong,caroline-hill-hong-kong,22.2785091,114.183197,1542893419
342458768,Isono_Eatery_and_Bar,chung-wan-hong-kong,22.2834301,114.1522369,1508534804
234902903,Heritage_of_Mei_Ho_House_,yau-yat-tsuen-hong-kong,22.3339378185,114.1636750102,1543108696
5900441,Baby_Caf_,mong-kok-hong-kong,22.3185128186,114.1685050798,1521375810
1031088743,Tong_Chong_Street_Market_,kau-man-hong-kong,22.2873392936,114.2118287087,1543166354
1266248073414937,Green_Waffle_Diner,caroline-hill-hong-kong,22.28,114.18335,1543158339
75256965,_Ramen_Iroha_HK,caroline-hill-hong-kong,22.2779,114.18662,1542772178
213741049,St_Paul_Of_Ruins_Macau,hung-kan-hong-kong,22.2975755972,114.1766597812,1543126119
222710585,Mira_Moon,caroline-hill-hong-kong,22.2799494215,114.1792810008,1543118668
979026468,Soho,chung-wan-hong-kong,22.2816987443,114.1530945764,1543164313
931255890,Twenty_One_Whitfield,caroline-hill-hong-kong,22.2861699,114.19068,1543171467
859795584,Kowloon_Station,hung-kan-hong-kong,22.3049,114.1615,1543151291
916636225,DOUX,mong-kok-hong-kong,22.321083152,114.169074297,1543150803
4776302,_,caroline-hill-hong-kong,22.275495415,114.1725677921,1543141094
580707948930857,Bakehouse,caroline-hill-hong-kong,22.276028596,114.171363786,1543125316
814964432,Espuma_QRE,kuai-huo-ku-hong-kong,22.2748846976,114.1722204286,1543159557
451349,_,yau-yat-tsuen-hong-kong,22.3299883143,114.1609742705,1543135710
610219756,Victoria_Peak_Hong_Kong,chung-wan-hong-kong,22.2709633181,114.1498897767,1543162129
1008992610,Ocean_Park_Station,mong-kok-hong-kong,22.2486,114.174,1543141224
557712794,_,sha-tin-tau-hong-kong,22.3880562251,114.1912370202,1543144125
262754629,_,mong-kok-hong-kong,22.3181589185,114.1712418627,1542862615
48846002,Star_Hall,sheung-yuen-leng-hong-kong,22.3238233261,114.2031813243,1534112415
313811225757338,10_000_Buddhas_Monastery_Sha_Tin_Hongkong,sha-tin-tau-hong-kong,22.3867787996,114.1857647616,1543158203
228308847,_Broadway_Kwai_Fong,fui-yiu-hong-kong,22.3576989691,114.1261866788,1543149865
222611032,Pure_Fitness_Langham_Place_Office_Tower,mong-kok-hong-kong,22.3188,114.16841,1543152299
228333119,_Mong_Kok_Market,mong-kok-hong-kong,22.31875,114.16701,1543156649
242781225,Cattle_Depot_Artist_Village,kowloon-bay-hong-kong,22.32077,114.19133,1543082130
386764326,_Jao_Tsung_I_Academy,shan-shin-po-hong-kong,22.3374680411,114.1423770027,1543152254
57781,_Hong_Kong_Central_Library,caroline-hill-hong-kong,22.280015963,114.1895996742,1543157956
216394603,Red_MR_MPM_,mong-kok-hong-kong,22.31833,114.16902,1543066917
339923353,Rosies_Cafe_Hong_Kong,sha-tin-tau-hong-kong,22.379754139,114.187429863,1542109771
483954396,Hesheeat_CWB,caroline-hill-hong-kong,22.280413103,114.185312429,1543168173
386764326,_Jao_Tsung_I_Academy,mong-kok-hong-kong,22.3374680411,114.1423770027,1543152254
234840202,_,mong-kok-hong-kong,22.3157,114.17179,1543153435
249890299,Kitec_Music_Zone_e_Max,sheung-yuen-leng-hong-kong,22.3238657725,114.2035038248,1543139946
228337273,Kishoku_,caroline-hill-hong-kong,22.2772031297,114.181702137,1543041815
230042834,Ho_Man_Tin_Hong_Kong,ho-man-tin-hong-kong,22.319121485,114.1793176946,1543168318
281385452,Blue_House_Hong_Kong_,kuai-huo-ku-hong-kong,22.2739,114.174,1543138489
254856411,_HK,caroline-hill-hong-kong,22.27935,114.18218,1542973598
562142,Academic_Community_Hall_,tung-tau-village-hong-kong,22.3409956,114.17934876,1543161925
19703177,Brotzeit_Hong_Kong,hung-kan-hong-kong,22.29762449,114.178004154,1543058166
111293038893353,_,chung-wan-hong-kong,22.2754694444,114.1438277778,1543165677
336942746,Wan_Chai_Station,caroline-hill-hong-kong,22.2773,114.1728,1543140584
562142,Academic_Community_Hall_,mong-kok-hong-kong,22.3409956,114.17934876,1543161925
855980250,Lab_Eat_Restaurant_Bar,hung-kan-hong-kong,22.302482604,114.1757369041,1543146584
111581209256232,Omotesando_Koffee,caroline-hill-hong-kong,22.2757730872,114.1722798278,1543138420
234708268,_,chung-wan-hong-kong,22.27406,114.14334,1543161416
202236,The_Sky_Bar,mong-kok-hong-kong,22.318156937,114.1686682296,1531665292
1163796833720310,_Apivita,fui-yiu-hong-kong,22.3574146171,114.127133166,1543160437
248253125,Big_Buddha_Hong_Kong,mong-kok-hong-kong,22.3195613724,114.1703850419,1543158420
213014176,_Wan_Chai_Pier,caroline-hill-hong-kong,22.2822588566,114.1748993672,1543150505
108026,Southorn_Playground,caroline-hill-hong-kong,22.2769,114.1722,1543140768
337083714,_,caroline-hill-hong-kong,22.2827812553,114.172328948,1543068606
1008996415,Bake_Cheese_Tart,caroline-hill-hong-kong,22.2803561614,114.184426436,1543158319
1033985112,Hong_Kong_Convention_Exhibition_Centre_,caroline-hill-hong-kong,22.2828674472,114.1723967915,1535364113
217889055,Sha_Tin_Park,sha-tin-tau-hong-kong,22.38,114.19,1543154180
427282,Stauntons_Wine_Bar_Cafe,chung-wan-hong-kong,22.2818018921,114.1530107119,1543135100
1726035607489829,_,hung-kan-hong-kong,22.3014314606,114.1820183262,1540779829
600208,_,chung-wan-hong-kong,22.2842524317,114.1525497722,1543058253
601834740,_,kuai-huo-ku-hong-kong,22.274874423,114.1717361713,1542812884
320770122,Gum_jeng_X_,caroline-hill-hong-kong,22.2825394,114.1856079,1542371308
1016501343,Greenhouse,caroline-hill-hong-kong,22.2786102,114.1824799,1543144945
286190713,_,mong-kok-hong-kong,22.3195591,114.1715698,1543150894
234290866,_,caroline-hill-hong-kong,22.27985,114.18046,1543000997
227530596,Amigo,kuai-huo-ku-hong-kong,22.27168,114.18486,1543118108
1153154208090912,SP_Flower_Tea_room,hung-kan-hong-kong,22.2986707152,114.1779943377,1543126509
1019150841,UA_Cine_Moko,mong-kok-hong-kong,22.3240795,114.1731186,1543117165
236057251,Red_MR_OPC,kuan-tang-hong-kong,22.312859198,114.2245773798,1537467803
755800170,_zi,hung-kan-hong-kong,22.30004,114.17553,1543146030
3180646,Manulife_Financial_Centre,kuan-tang-hong-kong,22.3076667491,114.2237258263,1543028977
276545499,HKIT_SKATE_SHOP,hung-kan-hong-kong,22.30038,114.17529,1543141446
288776593,Kixdreams,mong-kok-hong-kong,22.31816,114.17125,1543161057
120382031,_,kau-man-hong-kong,22.2822979977,114.2117185109,1543150636
309046,CoCo_Espresso,chung-wan-hong-kong,22.2851428562,114.1524419189,1543063812
3407973,Kozy_Okonomi_yaki_Teppan_yaki,caroline-hill-hong-kong,22.28025,114.18311,1543152891
687421993,_,mong-kok-hong-kong,22.3204715389,114.1711735172,1543127584
193781954699920,_,kau-man-hong-kong,22.2841550477,114.2123410362,1543133809
216891693,Kwai_Chung_Sports_Ground,fui-yiu-hong-kong,22.3583371051,114.1256840385,1543149338
3853478,XXX,mong-kok-hong-kong,22.2884143145,114.1480194667,1543152311
117891815,_,caroline-hill-hong-kong,22.2775307,114.1865005,1543059760
235401213,St_Pauls_Convent_School,caroline-hill-hong-kong,22.2783333333,114.1875,1543153907
213574890,Novotel_Century_Hong_Kong,caroline-hill-hong-kong,22.27895,114.17613,1543076897
1015628275,E_Max_Music_Zone,sheung-yuen-leng-hong-kong,22.323780473,114.203976041,1543139946
136399450420312,Hong_Kong_Heritage_Museum,sha-tin-tau-hong-kong,22.3767446802,114.1856483499,1543130596
235597458,King_Ludwig_Beerhall_,caroline-hill-hong-kong,22.2816575,114.186263,1543145926
265546906,Pazzeria_Italian_Brewery_Central_HK,chung-wan-hong-kong,22.28291,114.15245,1540086728
383397913,St_Pauls_Hospital_Hong_Kong_,caroline-hill-hong-kong,22.27835,114.18831,1543165108
376626974,Hong_Kong_China_International_Tattoo_Convention,kuan-tang-hong-kong,22.3069840845,114.2123436928,1542305828
303742423,Cafe_YAWN,caroline-hill-hong-kong,22.277959772,114.186692202,1539932062
55845860,Hazel_Hershey_Coffee_Roasters,chung-wan-hong-kong,22.28224,114.15209,1543024189
7367124,Agnes_B_Cafe_L_P_G_8_10_Gough_Street,chung-wan-hong-kong,22.2841650652,114.1526149019,1543151206
214426614,Red_Chicken_,hung-kan-hong-kong,22.3013896924,114.1750251694,1542988618
4520737,Yard_Bird,chung-wan-hong-kong,22.2836399,114.150528,1543155817
311872069,Studiodanz,kau-man-hong-kong,22.28542,114.21456,1543172517
2941876,Woaw_Store,chung-wan-hong-kong,22.284201903,114.1525617574,1538468761
1016345919,Mini_Club,caroline-hill-hong-kong,22.2806797,114.1828079,1542901742
45338,_Full_Cup_Cafe_Mk,mong-kok-hong-kong,22.315437201,114.1697104492,1543068136
531118843,The_POINT_Pizza_Pasta,caroline-hill-hong-kong,22.2794399,114.1825027,1543042805
241895846,The_Long_Beach,mong-kok-hong-kong,22.3201,114.156,1543070396
361078307,Sheung_Wan_Station,chung-wan-hong-kong,22.2864555031,114.1520349547,1543159565
213653160,_,mong-kok-hong-kong,22.31759963,114.1703169,1494059839
847934947,_,sha-tin-tau-hong-kong,22.3766169319,114.1853177548,1543068552
254617805,_BBQ_Mongkok,mong-kok-hong-kong,22.3155895981,114.1706621647,1542278238
809589621,La_Cr_perie_Hong_Kong,caroline-hill-hong-kong,22.2805,114.18228,1543153244
346151980,Simplylife_Bakery_Caf_CWB,caroline-hill-hong-kong,22.28249,114.18545,1542951992
1014515750,_Ink_Mark_Tattoo,caroline-hill-hong-kong,22.28111,114.18404,1542900234
227079726,_Butao_Causeway_Bay,caroline-hill-hong-kong,22.2790273956,114.1818362474,1543130723
1016415382,_,ho-man-tin-hong-kong,22.3135895,114.185635,1543159505
16737,Monster_Sushi,mong-kok-hong-kong,22.3185128186,114.1685050798,1522476199
451913735,_8_,mong-kok-hong-kong,22.3174829945,114.1730727905,1500870488
1021698018,Metroplaza_SHKP_,fui-yiu-hong-kong,22.35791,114.12671,1543165316
173997176347936,Tai_Wai_,sha-tin-tau-hong-kong,22.3758899071,114.1784210096,1543154371
327536183,Rustico_D2_Place,shan-shin-po-hong-kong,22.336024643,114.148715199,1543164290
5003946,_,chung-wan-hong-kong,22.2711892922,114.1499548035,1543074282
236134085,Kowloon_Walled_City,tung-tau-village-hong-kong,22.3322805556,114.1902777778,1543163021
28364,Times_Square_citysuper,caroline-hill-hong-kong,22.2787695487,114.1822692285,1543078735
636785649,_,kau-man-hong-kong,22.2861845778,114.2181029828,1543160495
8199519,Oi_Man_Estate_,ho-man-tin-hong-kong,22.3125009866,114.1783319182,1534926466
23060549,Pacific_Coffee,caroline-hill-hong-kong,22.2820868702,114.1864275679,1484903404
848443729,Ammar_Mosque_and_Osman_Ramju_Sadick_Islamic_Centre,caroline-hill-hong-kong,22.2775,114.178888889,1543153857
234683517,Immigration_Tower,caroline-hill-hong-kong,22.2797222222,114.1730555556,1542975362
256024916,_,chung-wan-hong-kong,22.2842388784,114.1525477188,1543058253
215686211,Mega_Ice,kuan-tang-hong-kong,22.3204256264,114.2084409533,1543145438
382314328778216,Garden_Hill,yau-yat-tsuen-hong-kong,22.3353003772,114.1636284187,1543058487
462430996,Cinema_City,mong-kok-hong-kong,22.3179560816,114.1685639012,1543159158
648698017,_Sandy_Lam_Concert,hung-kan-hong-kong,22.3014072494,114.1819352217,1502250292
243619158,Quarry_Bay_Hongkong_Island,kau-man-hong-kong,22.2875604705,114.210866403,1543136420
1017265958,Park_Hotel_Hong_Kong,hung-kan-hong-kong,22.2996784111,114.1755920649,1543146887
78657,St_Teresas_Church_,tung-tau-village-hong-kong,22.3259174348,114.1779387072,1543133085
642302337,Argyle_centre_,mong-kok-hong-kong,22.32013,114.16934,1543151141
1025311270,Tim_Ho_Wan,mong-kok-hong-kong,22.3293019603,114.1664227862,1543143741
1025311270,Tim_Ho_Wan,yau-yat-tsuen-hong-kong,22.3293019603,114.1664227862,1543143741
78657,St_Teresas_Church_,mong-kok-hong-kong,22.3259174348,114.1779387072,1543133085
287162438,_,hung-kan-hong-kong,22.3013272312,114.1820309629,1481416999
235292283,_Plaza_Hollywood_,sheung-yuen-leng-hong-kong,22.3404099348,114.202027682,1543147485
732300896,Disneyland_Hong_Kong,mong-kok-hong-kong,22.3208635339,114.1623042498,1543054002
1449883,_,caroline-hill-hong-kong,22.2799606,114.1867294,1543141584
419497,Sabatini,hung-kan-hong-kong,22.2985865933,114.1775679255,1543161855
234837364,_,kuai-huo-ku-hong-kong,22.2728,114.182,1543146048
639102,Stanford_Hotel_,mong-kok-hong-kong,22.3172684624,114.173112749,1543159306
234838828,_TA_KE_Japanese_Restaurant,caroline-hill-hong-kong,22.27859,114.18558,1543123966
219719152,The_Peak_Hong_Kong,mong-kok-hong-kong,22.319597116,114.163002349,1543170668
326600373,_Daieiki_Japanese_Restaurant,mong-kok-hong-kong,22.3183308,114.1690216,1543160465
267436245,Hogwarts_Express_Platform_9_3_4,caroline-hill-hong-kong,22.278545168,114.1825011513,1543171713
237756694,Shek_Kip_Mei_Hong_Kong,yau-yat-tsuen-hong-kong,22.3303805683,114.163170335,1543073321
162284,Hong_Kong_Baptist_Hospital_,mong-kok-hong-kong,22.3394219339,114.1798719314,1543161655
227641379,_,hung-kan-hong-kong,22.302063888,114.1823339604,1492259122
162284,Hong_Kong_Baptist_Hospital_,tung-tau-village-hong-kong,22.3394219339,114.1798719314,1543161655
219060915,_,hung-kan-hong-kong,22.2968261646,114.1773271965,1543171322
588946750,Simplylife_Bakery_Cafe_Shatin,sha-tin-tau-hong-kong,22.3813438958,114.1887644288,1529472472
2064522,_,yau-yat-tsuen-hong-kong,22.3320659168,114.1628868957,1543141346
213041759,Hotel_Indigo_Hong_Kong_Island,kuai-huo-ku-hong-kong,22.2748,114.17329,1543163169
241388407,Ruins_of_St_Pauls_Church_Macau,mong-kok-hong-kong,22.3210940022,114.1691175206,1543126119
280310748,Metro_Manila_Philippines,chung-wan-hong-kong,22.2817698,114.1442461,1542785891
234737607,TC2_cafe_workshop,yau-yat-tsuen-hong-kong,22.3255015305,114.1667910492,1543130781
538322209689283,_Hot_Pot_Land,mong-kok-hong-kong,22.31784,114.17334,1543164454
220979458,Madame_Tussauds_Hong_Kong_,chung-wan-hong-kong,22.27131769,114.1499422379,1543159568
1010224345,Greater_China_Club_,shan-shin-po-hong-kong,22.33668,114.14942,1543153081
1034455823,_,mong-kok-hong-kong,22.3179,114.17226,1543152142
500358460,No_5_Italian_WTC,caroline-hill-hong-kong,22.28212,114.18395,1533473166
214168217,Central_Plaza,caroline-hill-hong-kong,22.28,114.1736111111,1541982443
2500305,Assaggio_Trattoria_Italiana,caroline-hill-hong-kong,22.2801856484,114.1709262921,1543151650
1070412,Smile_Yogurt_Dessert_Bar,tung-tau-village-hong-kong,22.3297591247,114.1882145357,1540450023
213733044,Pure_Fitness_Kinwick_Centre,chung-wan-hong-kong,22.282079113,114.153323797,1543149281
1023357683,_,ho-man-tin-hong-kong,22.321374439,114.1751696911,1543169628
774052377,ISEE_ISEE_Handcrafted_Icy_Desserts,caroline-hill-hong-kong,22.2784671696,114.1866119308,1540032422
947831067,Momojein_HK,kuai-huo-ku-hong-kong,22.27489,114.17216,1534987001
213065760,_,mong-kok-hong-kong,22.3245,114.1683,1543167716
237241743,Hennessy_Road_Causeway_Bay,caroline-hill-hong-kong,22.2786867189,114.1791757538,1543148043
2155706,The_Live_House,mong-kok-hong-kong,22.32145172,114.16907799,1543068120
792995143,SweetyMagic_2_,mong-kok-hong-kong,22.31829,114.16975,1543131865
239289039,Munsang_College,tung-tau-village-hong-kong,22.3323085428,114.1865791222,1543123393
223138891,Starbucks_Hong_Kong,mong-kok-hong-kong,22.3154809797,114.1708914198,1543042504
214185438,_Macpherson_Playground,mong-kok-hong-kong,22.3185131532,114.1724400288,1543176294
1024121024,Moreish_Malt,kuan-tang-hong-kong,22.3107955885,114.2220854759,1543139391
774429449,I_See_I_See,caroline-hill-hong-kong,22.2782402,114.1866226,1535335709
269866668,Diamond_Hill,chung-wan-hong-kong,22.2833,114.15,1543116368
458950954,The_Globe,chung-wan-hong-kong,22.282410588,114.152896975,1532764596
1023245418,Eaton_HK,mong-kok-hong-kong,22.3084254787,114.1717212052,1543164243
369480599834065,Mongkok_Station,mong-kok-hong-kong,22.3158129175,114.1703242064,1543167071
220423445,_Delicious_Kitchen,caroline-hill-hong-kong,22.28232,114.1854935,1543140371
729525893852122,_Rise_Shopping_Arcade,hung-kan-hong-kong,22.29994,114.17516,1543131926
714574380,_Windsor_House,caroline-hill-hong-kong,22.28065,114.18646,1543162870
270845980,Novelty_Lane_noveltylane_com,caroline-hill-hong-kong,22.33668,114.14942,1542885572
270845980,Novelty_Lane_noveltylane_com,shan-shin-po-hong-kong,22.33668,114.14942,1542885572
24429,Factory_99,kuan-tang-hong-kong,22.3125060905,114.2232795937,1542697385
114315,_,mong-kok-hong-kong,22.3109,114.17132,1543030179
878865391,_Fisher_Farmer,kuan-tang-hong-kong,22.3198871934,114.2085134983,1542951425
849978231812855,Jollibee_Mongkok,mong-kok-hong-kong,22.31919,114.16905,1523171162
217421441,Tea_Saloon_By_Anotherfineday,chung-wan-hong-kong,22.2806396,114.1513138,1543055348
1018543537,Goobne,mong-kok-hong-kong,22.31766,114.16995,1542116582
373506398,Rummin_Tings,chung-wan-hong-kong,22.2820301,114.1535416,1543054694
732536671,Munchies,chung-wan-hong-kong,22.2841932864,114.152137542,1533515140
242774859,_,hung-kan-hong-kong,22.3013337655,114.1812432278,1543172018
705676,_,mong-kok-hong-kong,22.3200304689,114.1710800834,1543126214
1062781030508215,Cafe_de_paris_Hong_Kong_Limited,caroline-hill-hong-kong,22.27917,114.18173,1537194444
276152486214078,SuperPark_Hong_Kong,mong-kok-hong-kong,22.3175647218,114.1551804543,1543155486
1015347995,_WoZi,sheung-yuen-leng-hong-kong,22.3344498,114.1949768,1543144577
1028879688,Black_Sugar_Coffee_Peace_Ave,mong-kok-hong-kong,22.3191619122,114.1733054222,1543146888
34469336,Holiday_Inn_Express_Hong_Kong_SoHo_,chung-wan-hong-kong,22.28533,114.1509,1543067840
272899775,HKBU_C_L_Soong_Hall_,tung-tau-village-hong-kong,22.3355599311,114.1826146236,1542895094
252628273,Wan_Chai_,caroline-hill-hong-kong,22.2774202412,114.1723456814,1543137993
215587881,Flower_Market_Prince_Edward_Road_West,mong-kok-hong-kong,22.3249095538,114.1712753616,1494158008
1191017,_Golden_Bauhinia_Square,caroline-hill-hong-kong,22.2843252961,114.1737117651,1543035174
27074,Barista_Jam,chung-wan-hong-kong,22.2855146,114.1506435,1543171137
214032269,_Mongkok_Centre,mong-kok-hong-kong,22.3201259656,114.1693647027,1543136385
485146448,D2_Place,shan-shin-po-hong-kong,22.3359863103,114.1484928011,1543133818
130384,Lee_Theatre_Plaza_,caroline-hill-hong-kong,22.2783311858,114.1835073599,1542994408
427664837632304,_,hung-kan-hong-kong,22.30264531,114.18588846,1543143657
242089162,_South_China_Athletic_Association,caroline-hill-hong-kong,22.2756690219,114.1867657825,1543146660
168993790,CINE_TIMES,caroline-hill-hong-kong,22.27849,114.18234,1543143011
239842648,_Gonpachi_Hong_Kong,caroline-hill-hong-kong,22.2782803,114.1845169,1543127641
364743276,Kix_Files,mong-kok-hong-kong,22.321812632,114.1664081812,1542801615
478141035,Caf_Sausalito,yau-yat-tsuen-hong-kong,22.3274803,114.1627502,1543076423
1251382221568585,_Speechify,caroline-hill-hong-kong,22.2794865608,114.1859722138,1520859459
213007124,_,caroline-hill-hong-kong,22.2782453219,114.1799290875,1543126778
236657678,Conduit_Road,chung-wan-hong-kong,22.2810552554,114.1470169633,1543168366
651021175050400,Icremeria_Cafe,mong-kok-hong-kong,22.3184770176,114.1684036032,1543086271
857258,The_Excelsior_Hotel_Hong_Kong_,caroline-hill-hong-kong,22.2824349093,114.1842826589,1543140301
246414050,Wan_Chai_Pier,caroline-hill-hong-kong,22.2828589324,114.1757112465,1543153940
41086636,22_Ships,caroline-hill-hong-kong,22.2759385585,114.1708509775,1523055693
238158894,_,yau-yat-tsuen-hong-kong,22.3299294,114.1609573,1543161076
222566875,Smile_Yogurt_Cake_Dessert_Hysan_Place,caroline-hill-hong-kong,22.2791199541,114.1842181428,1542108113
889805544,Brooklyn_By_AG,mong-kok-hong-kong,22.3227345013,114.1722271546,1542973945
1595931223757673,Happy_Paradise,chung-wan-hong-kong,22.2826361454,114.1517981887,1543126394
1402299,Coyote_Hong_Kong,caroline-hill-hong-kong,22.27803,114.1725,1543026809
983987880,Sky_726,mong-kok-hong-kong,22.3212433,114.1691666,1543120815
291999539,Bubba_Gump_Shrimp_co_The_Peak_Hong_Kong,chung-wan-hong-kong,22.27131769,114.1499422379,1543155337
219722101,Ming_Court_Langham_Place_Hotel,mong-kok-hong-kong,22.3181439896,114.1682231439,1543163687
223017094,_,yau-yat-tsuen-hong-kong,22.32554,114.16939,1543128608
1616678875298689,_Mr_Tree_,shan-shin-po-hong-kong,22.33629227,114.1477131844,1543126235
445560282,_Seorae_477_,caroline-hill-hong-kong,22.2811,114.18253,1542793667
517218088,HK_PolyU_School_of_Design,hung-kan-hong-kong,22.3049967405,114.1793365382,1543119524
229617209,Tim_Ho_Wan_Olympian_City,mong-kok-hong-kong,22.317,114.16228,1543136116
226494330,Stone_Nullah_Tavern,kuai-huo-ku-hong-kong,22.27413,114.1739,1543048747
94138737,Fatty_Crab_Hong_Kong,chung-wan-hong-kong,22.2819767067,114.1531012348,1539857734
300863467,_Ding_Dim_1968,chung-wan-hong-kong,22.2825491057,114.1524447754,1543172377
1638838566188858,_,fui-yiu-hong-kong,22.3575176879,114.1269307736,1543161894
40125154,Cafe_Deadend,chung-wan-hong-kong,22.2838249894,114.1484959101,1522765193
454713459,Bread_Beast,caroline-hill-hong-kong,22.2755108,114.1714935,1542979349
219051476,Pure_Fitness_Lee_Theatre_Plaza,caroline-hill-hong-kong,22.2784169812,114.1837273276,1542994408
248012158,_Ramen_Kureha_,mong-kok-hong-kong,22.31766,114.17257,1542537656
330223206,Tian_Tan_Buddha,hung-kan-hong-kong,22.3017380389,114.1845281189,1543128529
266762473,Tai_Kok_Tsui_Kowloon_Hongkong,mong-kok-hong-kong,22.32303128,114.1613653437,1543166382
262351161,_,caroline-hill-hong-kong,22.2838001,114.1731186,1535364113
618773005,Mong_Kok_Flower_Market_,mong-kok-hong-kong,22.3247951056,114.1708284267,1543111279
834849203358552,_ATUM_Champak_Restaurant,mong-kok-hong-kong,22.3188299,114.1715497,1543170254
942700058,COEDO_Taproom,caroline-hill-hong-kong,22.2819099,114.185112,1543101695
225139185,10_000_Buddhas_Shatin,sha-tin-tau-hong-kong,22.3882421837,114.1853037979,1543165252
734650360032473,_,mong-kok-hong-kong,22.32335,114.16562,1543161614
95424924,Art_Basel_Hk_2013,caroline-hill-hong-kong,22.2823229468,114.1720775496,1524150702
338078709,Grand_Promenade,kau-man-hong-kong,22.2852,114.225,1543172414
1030820537,DD_SNEAKERS,kuan-tang-hong-kong,22.3128055194,114.220250845,1543160679
761607015,_,mong-kok-hong-kong,22.3163512177,114.1699059314,1543086163
1016624539,Whizzo_WHO_WEAR,fui-yiu-hong-kong,22.3588002891,114.1272252018,1524040523
234743737,_Si_Sun_Fast_Food,hung-kan-hong-kong,22.3055410493,114.184079959,1490790669
251362085,_,mong-kok-hong-kong,22.32333,114.16871,1543156544
122864619,School_Food,caroline-hill-hong-kong,22.2787807433,114.1824378514,1536147510
217442274,Tim_Ho_Wan_Sham_Shui_Po,yau-yat-tsuen-hong-kong,22.3293460136,114.1663892524,1543143741
218099606,Silka_Seaview_Hong_Kong,mong-kok-hong-kong,22.31019,114.17003,1543165476
1568476040116100,PLAYT,caroline-hill-hong-kong,22.28122,114.18658,1543157009
282999773,Ngau_Tau_Kok_Hong_Kong,kuan-tang-hong-kong,22.3167,114.217,1540889014
214826565,18_Grams_CWB_Cannon_St,caroline-hill-hong-kong,22.28156,114.18358,1543133658
262951306,Tsim_Sha_Tsiu_Hongkong,shan-shin-po-hong-kong,22.332078313,114.147820961,1543169840
350366399,KCP_,tung-tau-village-hong-kong,22.3308904608,114.1880106604,1543159218
254606870,_,caroline-hill-hong-kong,22.2796229202,114.1840063543,1542108113
757131341140975,_,fui-yiu-hong-kong,22.3444539249,114.1365266945,1543165845
217450067,_STAR_HALL,sheung-yuen-leng-hong-kong,22.3238233261,114.2031813243,1543156394
237704054,FreedomTattoo,kowloon-bay-hong-kong,22.3220877562,114.1901120408,1543053330
1026090042,Tree_Tree_Deco_,mong-kok-hong-kong,22.31525,114.16908,1540739791
226170401,Cheung_Chau_Island,caroline-hill-hong-kong,22.2779957325,114.1838713453,1543150492
383524640,Soft_Creme,caroline-hill-hong-kong,22.2809,114.18561,1499815541
732939250,Gumjeng_,mong-kok-hong-kong,22.31663,114.17322,1511969247
263976647,PMQ,chung-wan-hong-kong,22.2835035248,114.1522133766,1543150779
269857002,Prince_Edward_Road_West_Kowloon_Hongkong,tung-tau-village-hong-kong,22.3262621769,114.1808042186,1543149966
1022848137,Under_Vacuum_,mong-kok-hong-kong,22.32335,114.16562,1543161988
81385096,_,chung-wan-hong-kong,22.2847755046,114.1483964647,1543141228
954645286,Sushi_Shikon_Hong_Kong,chung-wan-hong-kong,22.28512,114.15207,1543154476
617766377,WHY_NOT_,hung-kan-hong-kong,22.29734,114.17504,1543167194
317850726,_da_hong_pao_hotpot,hung-kan-hong-kong,22.3013170752,114.1752727788,1543121108
1246766408728697,The_Drunken_Pot_Causeway_Bay_,caroline-hill-hong-kong,22.2792121,114.1816194,1543145771
643819858,Soho_Central_Hongkong,chung-wan-hong-kong,22.2826634846,114.1496753633,1537697366
6478644,Fiat_Caff_,caroline-hill-hong-kong,22.2773120897,114.1827976803,1521469742
683968610,Wan_Chai_,caroline-hill-hong-kong,22.2765180205,114.1728999996,1543080953
236858635,Cityplaza,kau-man-hong-kong,22.2864736229,114.2173941991,1543157784
314007069,Caf_Life_PMQ,chung-wan-hong-kong,22.2834301,114.1522369,1543160283
1024233889,sensory_ZERO,kau-man-hong-kong,22.28449,114.22042,1540653785
3985206,Habitu_The_Table,caroline-hill-hong-kong,22.2775190048,114.1830755122,1542888054
236786297,_UNY,tung-tau-village-hong-kong,22.3389602157,114.1870021546,1543051164
268684820,_,yau-yat-tsuen-hong-kong,22.3347461296,114.1657446539,1543078598
270494518,_Kai_Tak_Runway_Park,kuan-tang-hong-kong,22.3048215994,114.216033029,1541869488
1727306880920815,EAT_ME_Bar_Restaurant,mong-kok-hong-kong,22.31447,114.1705,1543071980
215612591,Ociokitchen,mong-kok-hong-kong,22.3164156249,114.1728737094,1542983565
205822856591698,Goughs_on_Gough,chung-wan-hong-kong,22.28429,114.15261,1543165053
573038289487981,common_room_co_,yau-yat-tsuen-hong-kong,22.3272049876,114.1632321381,1542716034
505382992,St_Marys_Canossian_College,hung-kan-hong-kong,22.3024882592,114.175838059,1543141166
220025685,_,kau-man-hong-kong,22.2881083297,114.221033329,1541433874
806643095,A_Beautiful_Store,mong-kok-hong-kong,22.3247702128,114.1724538803,1543121978
4502800,Mikiki_Mall,sheung-yuen-leng-hong-kong,22.3333932063,114.1965624685,1536086281
116116,_MIDO_CAFE_,mong-kok-hong-kong,22.3103,114.17031,1543135223
1027786122,Mr_Mrs_Cat_Cafe_Restaurant_,caroline-hill-hong-kong,22.2785235531,114.1836065054,1542871838
1367545316693744,Montane_Mansion_Building,kau-man-hong-kong,22.2848,114.21191,1543162081
372202423173837,Flight23_HK,mong-kok-hong-kong,22.31543,114.17114,1543127912
248102727,_,fui-yiu-hong-kong,22.3575,114.127777778,1543146947
432782,_,mong-kok-hong-kong,22.32125,114.16389,1542981899
224559841,School_of_Hotel_and_Tourism_Management_PolyU,hung-kan-hong-kong,22.3007847767,114.1796056518,1543033898
289923,The_Royal_Garden_,hung-kan-hong-kong,22.2983029536,114.1777172731,1543122209
26222400,Music_Zone_E_Max,sheung-yuen-leng-hong-kong,22.323797806,114.2037015089,1543139946
1019324643,_TETSU_,caroline-hill-hong-kong,22.2772293,114.1809464,1542785442
117470983,Comix_Home_Base_,caroline-hill-hong-kong,22.27731,114.17674,1534074745
612463429144538,Lee_Gardens,caroline-hill-hong-kong,22.2797347576,114.1838693619,1543136179
261410967320748,_,tung-tau-village-hong-kong,22.3336601,114.1871338,1543147087
213461389,Hung_Hom_Station,hung-kan-hong-kong,22.303184926,114.181660748,1543152449
213995605,Lane_Crawford_Times_Square,caroline-hill-hong-kong,22.2783119053,114.182203824,1543136655
1001909426,_Thaimerder,shan-shin-po-hong-kong,22.3383035182,114.1462777136,1542799249
240788444,Sha_Tin_Station,sha-tin-tau-hong-kong,22.3825,114.1875,1543153311
1832339397035658,Tsuta_Hong_Kong,caroline-hill-hong-kong,22.279055809,114.181743839,1543158815
227358404,Regal_Oriental_Hotel,sheung-yuen-leng-hong-kong,22.3299541118,114.1929614389,1543114502
275606769,Wildfire_pizzabar_grill,caroline-hill-hong-kong,22.28225,114.18478,1543125017
392969155,Ying_Wa_College,shan-shin-po-hong-kong,22.3298783533,114.1526858638,1543142775
222082721,Akrame_HK,caroline-hill-hong-kong,22.2761662288,114.170845046,1542895786
944436956,MyHouse,kuai-huo-ku-hong-kong,22.2748909,114.1721573,1500379235
213001120,_Tea_Wood,caroline-hill-hong-kong,22.2801895,114.1829224,1543124439
977914713,Sweet_Monster,mong-kok-hong-kong,22.3188,114.16841,1489314078
223447193,_,mong-kok-hong-kong,22.3176683337,114.1710149678,1543129303
730675272,_,hung-kan-hong-kong,22.3018732645,114.1754744961,1543151968
35989783,_c_ng_Sao_Star_Dessert,caroline-hill-hong-kong,22.27748,114.1822,1520022779
213685,_Tai_Fung_Lau_Peking_Restaurant,hung-kan-hong-kong,22.298113892,114.1750976,1542980590
1260500,_,mong-kok-hong-kong,22.3164355058,114.1712555155,1543065368
1117340,_,mong-kok-hong-kong,22.3174615204,114.1697380461,1543166502
517360125,_,yau-yat-tsuen-hong-kong,22.3317471628,114.1619654119,1539181255
13527,MegaBox_Neway_CEO,kuan-tang-hong-kong,22.3194333111,114.2082978177,1535804505
763984391,_,sheung-yuen-leng-hong-kong,22.3411045888,114.2009866452,1543150492
267442534,_,caroline-hill-hong-kong,22.2805,114.18228,1542897763
365753289,Palco_Ristorante,caroline-hill-hong-kong,22.2787407485,114.1715561055,1543153427
223873359,Hong_Kong_Mid_levels,chung-wan-hong-kong,22.2821379479,114.1498191624,1543140060
390288225,_,caroline-hill-hong-kong,22.2799167,114.18432956,1543161733
1018212724,Ho_Man_Tin_Kowloon,ho-man-tin-hong-kong,22.3166666667,114.1833333333,1543158291
364571243896215,Soy_Street_Mongkok_hong_Kong,mong-kok-hong-kong,22.3168869488,114.1716916631,1539137422
921191061330831,Uma_Nota_HK,chung-wan-hong-kong,22.2831598283,114.1529488563,1543182280
361171065,Supcruz_,mong-kok-hong-kong,22.3176,114.17053,1543128852
1016120625,_,yau-yat-tsuen-hong-kong,22.3287045391,114.1601332382,1541687600
216496752,Diamond_Hill_,sheung-yuen-leng-hong-kong,22.340437279,114.2018348382,1543159405
214948231,_,caroline-hill-hong-kong,22.28031,114.18412,1543138921
215756704,_,mong-kok-hong-kong,22.3226651877,114.1690113156,1543167898
298384076,Dim_Sum_Square,chung-wan-hong-kong,22.2851587072,114.151192028,1543148364
1724673704465164,Yadllie_Plate_HK,mong-kok-hong-kong,22.31568,114.17062,1543160114
236723942,Classified,chung-wan-hong-kong,22.2841574079,114.1505669299,1543120378
267986618,_,caroline-hill-hong-kong,22.2776677968,114.1770347825,1543155000
1032962488,_,yau-yat-tsuen-hong-kong,22.33391,114.16236,1542544575
880922735,Felix_The_Peninsula,hung-kan-hong-kong,22.2950211595,114.1718592217,1543155208
213073959,TeaWood_,caroline-hill-hong-kong,22.2801895,114.1829224,1543124439
242737394,_sushi_Mori_,caroline-hill-hong-kong,22.2776863519,114.1860918137,1541783341
1017745067,FRITES,caroline-hill-hong-kong,22.27776,114.18702,1543058582
1467267,Mini_Club,mong-kok-hong-kong,22.3192730515,114.173522031,1542982993
442089,_,caroline-hill-hong-kong,22.280606261,114.1824477577,1543076783
587743,Lanson_Place_Hotel,caroline-hill-hong-kong,22.27856,114.18658,1543111120
1561696350517805,Wooloomooloo_Steakhouse_Hong_Kong,caroline-hill-hong-kong,22.27781,114.17602,1542981679
337948783,Olympic_Station,mong-kok-hong-kong,22.3178,114.1602,1543169792
239403988,_,kau-man-hong-kong,22.2860165446,114.2232561383,1543123546
247038380,Old_Peak_Road_,chung-wan-hong-kong,22.2757061346,114.1531208093,1543157145
223880987,_Ho_Hung_Kee,caroline-hill-hong-kong,22.2802991498,114.1839189291,1543141145
200873340361538,Yau_Ma_Tei,mong-kok-hong-kong,22.3103217,114.1693463,1543073087
215879507,San_Po_Kong_Hong_Kong,sheung-yuen-leng-hong-kong,22.3352463904,114.19650185,1543112906
734896927,_,mong-kok-hong-kong,22.3162962325,114.1712379907,1543158653
254894601,To_Kwa_Wan_Kowloon_Hongkong,kowloon-bay-hong-kong,22.321515491,114.189401636,1516075041
912097749,_,fui-yiu-hong-kong,22.3445803418,114.1364602174,1531055593
494255991,_,sha-tin-tau-hong-kong,22.3823038897,114.1884736274,1543050099
15553799,Melody_Pole_Studio,shan-shin-po-hong-kong,22.3402146835,114.1489102956,1543164556
860007844098757,_,mong-kok-hong-kong,22.3213792667,114.1710246667,1543055607
1018289970,The_Fat_Pig_by_Tom_Aikens,caroline-hill-hong-kong,22.2786102,114.1824799,1534349160
1009433285,MAMA_Burger_Lobster,shan-shin-po-hong-kong,22.34064,114.15486,1526048593
433929707,Le_Relais_de_lEntrec_te_Hong_Kong,kuai-huo-ku-hong-kong,22.2746715303,114.1727229258,1504588061
218483652,_,chung-wan-hong-kong,22.2706844805,114.1499187035,1543136934
15143231,_,yau-yat-tsuen-hong-kong,22.3263960821,114.1622895023,1543160802
215580855,Tai_Ping_Shan_Street,chung-wan-hong-kong,22.284919594,114.14819755,1543026115
1024435468,_,yau-yat-tsuen-hong-kong,22.336615778,114.1600114391,1542969336
568704600,Madame_Tussauds_Victoria_Peak_Hongkong,chung-wan-hong-kong,22.27131769,114.1499422379,1543146794
759435068,Dalin_Pocha_,hung-kan-hong-kong,22.301899121,114.175415722,1534610632
303753366,Nike_Lab_Ps7,caroline-hill-hong-kong,22.2790699,114.1839066,1542987298
214371813,_,fui-yiu-hong-kong,22.34467775,114.1364292914,1531055593
1019399645,Manulife_Tower,kuan-tang-hong-kong,22.3159065834,114.2142224379,1542980502
168972,_,mong-kok-hong-kong,22.321592,114.1602451,1543144494
224501947,Gough_Street,chung-wan-hong-kong,22.28414,114.15277,1543165053
253022367,Kings_Road_Quarry_Bay_Hongkong,kau-man-hong-kong,22.2842182622,114.2124848487,1543124149
249427565,Hongkong_Disneyland,kuan-tang-hong-kong,22.3120819238,114.219907076,1543149358
339152110,Kowloon_City_Ferry_Pier,kowloon-bay-hong-kong,22.3178372852,114.1929404549,1543139071
1009206215,Tai_On_Building,kau-man-hong-kong,22.282842,114.221983,1542954874
494421810,Wah_Yan_College_Kowloon,mong-kok-hong-kong,22.3146,114.174,1543145002
756032476,FRITES,chung-wan-hong-kong,22.2849551,114.1528667,1543074270
1010682481,Prudential_Hong_Kong_Tennis_Open,caroline-hill-hong-kong,22.2828222888,114.1896414757,1541167207
213179840,_6_,mong-kok-hong-kong,22.31772,114.16987,1540454367
1026244770,Maison_Libanaise,chung-wan-hong-kong,22.281685569,114.1532492638,1543087623
776811977,Cafe_IDEA_cafe,mong-kok-hong-kong,22.31636,114.17046,1543059526
218524642,Langham_Place_Hotel,mong-kok-hong-kong,22.3181439896,114.1682231439,1485700566
570730795,Mong_Kok_East_Station,mong-kok-hong-kong,22.321917008,114.172403466,1543157826
937716509,Outback_Steakhouse_Moko_Mall_Mongkok,mong-kok-hong-kong,22.3228007832,114.1722663972,1536155465
4031758,_Iwanami_Japanese_Restaurant,caroline-hill-hong-kong,22.28024,114.18388,1543123921
1650471,Soho_Soho,chung-wan-hong-kong,22.28221428,114.1529895,1541596977
508409319,_,yau-yat-tsuen-hong-kong,22.329837887,114.1594305856,1543153695
1020826001,Something_Wild_,caroline-hill-hong-kong,22.2777,114.17676,1537597562
1028505081,Nam_Cheong_Park,shan-shin-po-hong-kong,22.3241,114.1573,1543151320
1018929899,_Chirashi,caroline-hill-hong-kong,22.2778606,114.1793213,1536681860
848267121973245,Hilton_Garden_Inn_Hong_Kong_Mongkok_,mong-kok-hong-kong,22.3159,114.167,1543168071
1401435343276559,Stanley_Main_Beach_Hong_Kong,caroline-hill-hong-kong,22.2809,114.178,1543140546
217411162,_,caroline-hill-hong-kong,22.2813,114.178,1543149846
276283693,Patisserie_Tony_Wong_Dessert_Cafe,sha-tin-tau-hong-kong,22.3821249907,114.1881250479,1531749994
234862247,_Hong_Kong_Macau_Ferry_Terminal,chung-wan-hong-kong,22.28853085,114.1526973205,1543122730
219995849,Waffills,caroline-hill-hong-kong,22.2781558817,114.1863571884,1517076661
297863470713543,_,mong-kok-hong-kong,22.31697,114.16909,1543157235
350817442,_,mong-kok-hong-kong,22.31841,114.16924,1543069065
245028101,_,kau-man-hong-kong,22.2828226414,114.2219532009,1540821069
27279,Harbour_Plaza_Metropolis_,hung-kan-hong-kong,22.3011537029,114.1833845344,1543144237
864000693,Coast_Seafood_Grill,caroline-hill-hong-kong,22.28232,114.1854935,1542872427
128687461,The_Mixing_Bowl_HK,chung-wan-hong-kong,22.2841747815,114.1508181315,1542826322
237493975,_,kuan-tang-hong-kong,22.3079344307,114.2124860996,1538052044
10585271,Simply_Life_Olympian_City_3,mong-kok-hong-kong,22.3172084859,114.1646839452,1542604776
237815374,_,shan-shin-po-hong-kong,22.3379625038,114.142392786,1543075218
359462487738811,Causeway_Bay,caroline-hill-hong-kong,22.2794420205,114.1839646445,1504694362
237518636,Kings_Park_Hong_Kong,mong-kok-hong-kong,22.3167,114.167,1543071685
534926163372081,_,kuan-tang-hong-kong,22.31279,114.2247,1543067675
182871,_Neway,mong-kok-hong-kong,22.3162702469,114.1696023993,1543166296
1009638488,_,caroline-hill-hong-kong,22.27924,114.18683,1543147802
597007542,Hesheeat_Cafe,caroline-hill-hong-kong,22.28035273,114.185173041,1543168173
235557924,_Under_Bridge_Spicy_Crab,caroline-hill-hong-kong,22.2800687165,114.1807030251,1529625523
218020060,Dickens_Bar_at_The_Excelsior_Hong_Kong_,caroline-hill-hong-kong,22.28217,114.18424,1543045949
255343539,Sam_Shui_Po_Hong_Kong,shan-shin-po-hong-kong,22.3333,114.15,1543162469
238518358,_,caroline-hill-hong-kong,22.27849,114.18234,1543151255
337479829,Minh_kok,caroline-hill-hong-kong,22.28233,114.18497,1540095238
235144754,SushiMori_,caroline-hill-hong-kong,22.27929,114.18203,1542953194
1022318325,PlayLog_,fui-yiu-hong-kong,22.35783,114.12762,1542946998
788830007,La_Station,kuai-huo-ku-hong-kong,22.27447,114.17355,1543037611
216471732,_Butao_Ramen_ST,sha-tin-tau-hong-kong,22.381066416,114.1879624128,1543134587
7654725,_,mong-kok-hong-kong,22.31683,114.17088,1543142173
300206530,StagE_the_sky,mong-kok-hong-kong,22.315751358,114.1617927815,1543052010
12014,_Apliu_Street,yau-yat-tsuen-hong-kong,22.330391119,114.1619093035,1543101291
3495304,Madam_Sixty_Ate,caroline-hill-hong-kong,22.2766713111,114.1715387895,1460492566
236158219,_,kuan-tang-hong-kong,22.30746,114.2237,1543130908
238563234,Lockhart_Rd_Wanchai_Hongkong,caroline-hill-hong-kong,22.2781597501,114.1715541365,1542446445
19149897,Campers_Quarry_Bay,kau-man-hong-kong,22.28646551,114.2112149345,1543161851
238426027,Argyle_Street_Hong_Kong,ho-man-tin-hong-kong,22.3204,114.176,1543151522
585734194,_,mong-kok-hong-kong,22.3219947498,114.16198705,1543084693
340031043,Wong_Tai_Sin_Station,sheung-yuen-leng-hong-kong,22.3415,114.194277778,1543155620
570743668,_Cafe,mong-kok-hong-kong,22.31693,114.17141,1536711246
221051610,Din_Tai_Fung_Causeway_Bay,caroline-hill-hong-kong,22.2797909,114.1862106,1498584852
216871382,_,mong-kok-hong-kong,22.3179252,114.1693868955,1540283354
103302580427367,_,caroline-hill-hong-kong,22.2809,114.178,1543140204
128241987,Serge_et_le_phoque,caroline-hill-hong-kong,22.2757530635,114.1741012175,1529762525
646665616,Rosedale_Hotel_Hong_Kong_,caroline-hill-hong-kong,22.2792083476,114.1883639333,1543071523
219862766,_,caroline-hill-hong-kong,22.27806,114.1855,1543062856
2014814742083007,_,mong-kok-hong-kong,22.3142,114.17023,1543164808
518309,_,caroline-hill-hong-kong,22.2793771843,114.1825300331,1543072813
1025031915,_Semua_Semua,yau-yat-tsuen-hong-kong,22.32875,114.16199,1543156073
148986929092423,Junon,kuai-huo-ku-hong-kong,22.27452,114.17267,1543162439
1025072388,_,mong-kok-hong-kong,22.3197766698,114.169388637,1543028775
216371575,_,kau-man-hong-kong,22.2820807501,114.2218457478,1543156463
960491,_,chung-wan-hong-kong,22.2853353171,114.1516757483,1543178629
216525840,Causeway_Bay_Station,caroline-hill-hong-kong,22.2805328929,114.1842859314,1543120654
215045276,Spasso_Resto,hung-kan-hong-kong,22.298112479,114.178563109,1542986278
458120426,Cats_Eye_Bistro_,caroline-hill-hong-kong,22.2760506,114.17173,1543057725
983473026,Issaya_Siamese_Club_Hong_Kong,caroline-hill-hong-kong,22.2788734,114.181488,1498131002
246988257,_,shan-shin-po-hong-kong,22.324661677,114.1570452364,1543151320
241253307,The_Sky_Bar,caroline-hill-hong-kong,22.278201728,114.183257837,1543064709
266612301,_,mong-kok-hong-kong,22.3208103,114.1697922,1539580768
522206884,_,kuan-tang-hong-kong,22.312256812,114.2227837224,1539263363
955379373,_2_,chung-wan-hong-kong,22.2827419526,114.1539489968,1543158870
220646963,_,mong-kok-hong-kong,22.30986,114.16895,1543072607
251989197,_,hung-kan-hong-kong,22.3014291553,114.1821717239,1492259122
242139284,_,sheung-yuen-leng-hong-kong,22.3235277104,114.2042320977,1542885489
456299145,Umai_,shan-shin-po-hong-kong,22.336022551,114.148641354,1543157805
952683799,_The_Brewed_VENA,caroline-hill-hong-kong,22.27951,114.1857,1516716985
835127924,Australian_International_School_Hong_Kong,tung-tau-village-hong-kong,22.3356,114.178,1542934389
411075987,_,kau-man-hong-kong,22.2832877104,114.2207020155,1543024839
1024032905,_Hungry_Boy,mong-kok-hong-kong,22.31778,114.17332,1543073240
1055296891211427,The_Hunt_Coffee_Roastery,kuan-tang-hong-kong,22.3089241,114.2239645,1543126171
190321418129361,_,yau-yat-tsuen-hong-kong,22.32612,114.1693,1543120363
194605644429834,_Shatin_Park,sha-tin-tau-hong-kong,22.3801410927,114.1900836167,1543154180
218501149,Mini_Hotel_Causeway_Bay,caroline-hill-hong-kong,22.277501445,114.1840872794,1543034491
1032519802,_Aidan_Cafe,kuan-tang-hong-kong,22.31304,114.22431,1543151848
43087,King_Ludwig_Beerhall_,kuai-huo-ku-hong-kong,22.2743922,114.1726844,1529150074
62089,MCL_,kau-man-hong-kong,22.2848563901,114.2162718092,1494511193
214804289,_,mong-kok-hong-kong,22.3193398,114.1727371,1538041903
898523979,Slide_The_City_HONG_KONG,kuan-tang-hong-kong,22.3079171185,114.2128372192,1474992143
244160667,Grand_Waterfront,kowloon-bay-hong-kong,22.3194444444,114.1930555556,1543151821
1019212715,_Mukshihk,mong-kok-hong-kong,22.3212217084,114.1692852405,1542043647
412602,Peel_Fresco_Music_Lounge,chung-wan-hong-kong,22.2827821092,114.152763557,1543172395
227681639,Open_Oyster,hung-kan-hong-kong,22.2998461781,114.1788110983,1542986738
220583489,Angelini_Kowloon_Shangri_La,hung-kan-hong-kong,22.2965116071,114.177082965,1543152843
1029883392,Le_Pain_Quotidien,caroline-hill-hong-kong,22.2765337108,114.1723425968,1543173354
223976700,_2_2_Cafe,sha-tin-tau-hong-kong,22.3799092112,114.1884313077,1543072079
207478166460747,La_Vache_TST,hung-kan-hong-kong,22.29811,114.17501,1543170631
241964505,_,mong-kok-hong-kong,22.3178202949,114.1734087467,1543108864
223660393,MCL_JP_Cinema,caroline-hill-hong-kong,22.2806486,114.1854514861,1487583222
1751850,Bouchon_Bistro_Fran_ais,chung-wan-hong-kong,22.2814818937,114.1526271734,1541227891
126976,_,yau-yat-tsuen-hong-kong,22.3326659588,114.1627572579,1543145216
214129714,Posto_Pubblico,chung-wan-hong-kong,22.28175,114.15256,1543036377
218400275258262,Gordon_Ramsays_London_House,hung-kan-hong-kong,22.2975516845,114.1780385303,1543162299
234743738,Soho_Hong_Kong_Central,chung-wan-hong-kong,22.2820358561,114.1532051196,1537697366
9572000,Harbourview_Horizon,hung-kan-hong-kong,22.302353414,114.1849691455,1518764616
3502133,Comma_Cafe,mong-kok-hong-kong,22.3156222352,114.1711460765,1514024449
53055,Peel_Street_,chung-wan-hong-kong,22.282861497,114.152900794,1543164069
627520262,OPPA_Coffee_Bar_Restaurant_,hung-kan-hong-kong,22.3007925345,114.1751598642,1543069688
168956406,GUMGUMGUM,caroline-hill-hong-kong,22.2825394,114.1856079,1538127794
1245517168885615,9_3_4_cafe,mong-kok-hong-kong,22.31657,114.17222,1543156534
230116740,IVE_Haking_Wong_,shan-shin-po-hong-kong,22.3350513116,114.1528295782,1543052594
215795898,_,kau-man-hong-kong,22.2827070747,114.2248411388,1543137696
803482199828917,_One_Dim_Sum_Chinese_restaurant_,yau-yat-tsuen-hong-kong,22.32554,114.16939,1536483575
508752,_Garden_Restaurant,mong-kok-hong-kong,22.31064,114.17092,1543072548
312985118,Mei_Wah_Tattoo_,mong-kok-hong-kong,22.3230705,114.1671906,1543063175
160340957879898,Lady_M,sha-tin-tau-hong-kong,22.3824498215,114.1884801053,1543154741
3038697,Saboten_,caroline-hill-hong-kong,22.2792149419,114.1845170129,1543070059
256702137,Amoy_Gardens,kuan-tang-hong-kong,22.32445,114.21659,1543125909
557326667,Youth_Outreach_,kau-man-hong-kong,22.2816594549,114.2229361807,1543173497
219281794,_1961,caroline-hill-hong-kong,22.2785892,114.1863403,1543134624
244803834,Night_Market_PMQ_Central,chung-wan-hong-kong,22.283381547,114.1519825928,1543150779
274135603,Coffee_Roastery_Lab_by_18Grams,chung-wan-hong-kong,22.2855151362,114.1518974304,1543162120
382496,_,caroline-hill-hong-kong,22.27677,114.17148,1542979217
1010375544,_Lee_Keung_Kee_North_Point_Egg_Ball,kau-man-hong-kong,22.3028429196,114.1717283191,1543156625
311024842,Greyhound_Cafe_,kau-man-hong-kong,22.2873335794,114.2173611881,1543136868
1017124856,_,hung-kan-hong-kong,22.3038,114.183,1543154347
25689175,_,tung-tau-village-hong-kong,22.3383904,114.1900787,1541934200
177208375119,Sweetpea_Cafe_HK,chung-wan-hong-kong,22.2841,114.15209,1543147548
1069328196501044,Din_Tai_Fung,caroline-hill-hong-kong,22.27979,114.18621,1543154045
265053950529350,_MTR_Whampoa_Station,hung-kan-hong-kong,22.305267006,114.1890843276,1543154861
244699516,Manhattan_Hill,shan-shin-po-hong-kong,22.335,114.1425,1543055707
1033766077,Le_R_ve,caroline-hill-hong-kong,22.2772599,114.1817,1543160476
215820880,_New_Town_Plaza,sha-tin-tau-hong-kong,22.3822157356,114.1883666259,1485002833
236822326,The_Metroplex,sheung-yuen-leng-hong-kong,22.3238,114.20379,1542643607
160487,SML,caroline-hill-hong-kong,22.2788698728,114.1825781902,1517232278
239730328,The_Fleming_Hong_Kong,caroline-hill-hong-kong,22.2789593,114.1747818,1543117815
792487293,Sham_Shui_Po,mong-kok-hong-kong,22.3166666667,114.15,1543166971
252520982,_The_Avenue,caroline-hill-hong-kong,22.275068277,114.1720143237,1543166874
1797436623850483,_Sushi_Man,hung-kan-hong-kong,22.3056564854,114.1891238093,1542955210
132225386819663,Cafe_R_C,caroline-hill-hong-kong,22.27794,114.18682,1543161010
810939490,_,ho-man-tin-hong-kong,22.3166666667,114.183333333,1543159753
247024063,_Mui_Kee_Congee_Hong_Kong,mong-kok-hong-kong,22.3209163549,114.1704932205,1543155872
337203718,Nam_Cheong_Station,shan-shin-po-hong-kong,22.3264972222,114.153088889,1543124199
47353606,_,caroline-hill-hong-kong,22.27837,114.17769,1543121834
239662247,Paterson_St_Causeway_Bay_Hong_Kong,caroline-hill-hong-kong,22.2815336594,114.1850793775,1512442731
1032259161,Tom_N_Toms_Coffee_Hong_Kong,sha-tin-tau-hong-kong,22.3002,114.17211,1543155057
431681,Hooray_Bar_Restaurant,caroline-hill-hong-kong,22.28212,114.18395,1541401547
216912558,Craft_Coffee_Roaster,mong-kok-hong-kong,22.31926,114.16188,1543139006
304346101,_,caroline-hill-hong-kong,22.2782918798,114.1833612645,1542626199
19521,_,chung-wan-hong-kong,22.2852802,114.1479111,1543083049
221098111,Tabibito,chung-wan-hong-kong,22.2845,114.14743,1488809298
861455131,Lockhart_Road,caroline-hill-hong-kong,22.2782,114.173,1543137147
1006702170,Portland_180_,mong-kok-hong-kong,22.3167381,114.1693802,1539051255
75859933,_,mong-kok-hong-kong,22.3158754581,114.1719247382,1543156949
219842340,_Hong_Kong_Science_Museum_Hong_Kong_Science_Museum,hung-kan-hong-kong,22.3012147123,114.1772829559,1543152033
238075970,_Hong_Kong_Coliseum,hung-kan-hong-kong,22.3011686946,114.181890718,1492259122
947207004,Tore_Tore_Hama_Yaki_,caroline-hill-hong-kong,22.2802391,114.1838837,1543158432
363079,LaVilla,hung-kan-hong-kong,22.2974738615,114.177801672,1523086242
216517825,Montane_Mansion,kau-man-hong-kong,22.2836745,114.2122718,1543136819
19850764,_,kau-man-hong-kong,22.284143245,114.2125985403,1543179104
236217846,_An_Nam_Hong_Kong,caroline-hill-hong-kong,22.27828,114.18452,1543126429
1727985177459892,I_love_you_Dessert_BAR,mong-kok-hong-kong,22.31778,114.17332,1543076698
268191109,Tokwawan_hongkong,kowloon-bay-hong-kong,22.3171373624,114.1894699147,1495462291
1830987593851082,The_AIA_Great_European_Carnival_Central_Hongkong,caroline-hill-hong-kong,22.2809,114.178,1536506392
955148518,Metropark_Hotel_Mongkok,mong-kok-hong-kong,22.3234291,114.1674881,1543139584
218616332,227_227_Desserts_Tavern,yau-yat-tsuen-hong-kong,22.32595,114.16989,1543154985
245536470,Mido_Cafe_,mong-kok-hong-kong,22.310186845,114.1704280718,1543156824
238570286,_,caroline-hill-hong-kong,22.2751585,114.1789085,1543158434
237862119,_,hung-kan-hong-kong,22.3014436484,114.1820503903,1492259122
240490870,HKBU_Communication_And_Visual_Arts_Building,tung-tau-village-hong-kong,22.3342803676,114.1821969741,1543065177
1029046684,_LINE_store,caroline-hill-hong-kong,22.2796783595,114.1839690121,1543135455
243806376,Le_Port_Parfum_,chung-wan-hong-kong,22.2844573511,114.1529297537,1527339879
251606745,Tsim_Tsa_Tui_Hongkong_Harvour_View,hung-kan-hong-kong,22.3003884564,114.1758485409,1543161272
1031405309,Caf_Hillywood,hung-kan-hong-kong,22.30333,114.17518,1518410541
719497,Tiffany_Restaurant_,mong-kok-hong-kong,22.32443,114.16976,1543149325
4459084,La_Cabane_a_Vin,chung-wan-hong-kong,22.282952384,114.152875422,1543129726
226790922,Motorino_Hong_Kong,chung-wan-hong-kong,22.2817457453,114.1529310058,1543138209
221964131,Wah_Yan_College_Hong_Kong,kuai-huo-ku-hong-kong,22.2743488536,114.1761815165,1542882473
237119749,_Neway_Ceo,caroline-hill-hong-kong,22.2777004,114.1767578,1543163950
889938051,_,mong-kok-hong-kong,22.31772,114.16987,1543135137
1007854987,Bingo_Cook,caroline-hill-hong-kong,22.2806797,114.1828079,1543158553
369899,_China_Cafe,mong-kok-hong-kong,22.3196577622,114.1671319529,1543137909
217052837,_,mong-kok-hong-kong,22.3177605865,114.1706906424,1502808744
235421702,_,kau-man-hong-kong,22.2883340112,114.2184746854,1543153971
220951343,_Ichitora_Ramen_at_Wanchai,caroline-hill-hong-kong,22.2755625111,114.1719630361,1542771605
220648684,Kubrick_,mong-kok-hong-kong,22.3107113518,114.1688539138,1541079073
244102759,Galaxy_Tattoo_HK,kowloon-bay-hong-kong,22.2873583007,114.1396089409,1542810585
1577793042529156,Causeway_Bay_Goobne_Chicken,caroline-hill-hong-kong,22.2790554151,114.1815414225,1543147999
47324376,_,mong-kok-hong-kong,22.3163204701,114.1706440909,1543045220
237142114,YHA_Mei_Ho_House_Youth_Hostel_YHA_,yau-yat-tsuen-hong-kong,22.3337717654,114.1637081765,1543022899
935650199877921,WeWork_Tower_535,caroline-hill-hong-kong,22.2813191735,114.1839064937,1542968164
431321257222108,_,kuan-tang-hong-kong,22.3129147,114.2197948694,1543062287
443153568,_,sha-tin-tau-hong-kong,22.3819,114.188,1529028511
235620002,Celestial_Heights,ho-man-tin-hong-kong,22.3191999486,114.1858477335,1543188983
214900927,_,kuai-huo-ku-hong-kong,22.26934,114.18493,1543136960
226967267,Grissini_at_Grand_Hyatt_Hong_Kong,caroline-hill-hong-kong,22.2814125563,114.1721534729,1543113730
433022140424752,Central_Pier_10_Hong_Kong,caroline-hill-hong-kong,22.2809,114.178,1543159790
218013156,Repulse_Bay_Beach_,yau-yat-tsuen-hong-kong,22.338674064,114.1616489011,1543184555
252841125,_,tung-tau-village-hong-kong,22.3302454156,114.1888327531,1543149235
53067686,298_Nikuya_Kitchen_T_S_T,hung-kan-hong-kong,22.2990927495,114.1750019789,1543143535
955115830,Kowloon_Harbourfront_Hotel,hung-kan-hong-kong,22.30004318,114.18556467,1543184283
258317945,_Kowloon_Walled_City_Park,tung-tau-village-hong-kong,22.331668259,114.190940664,1543163021
214769925,_,yau-yat-tsuen-hong-kong,22.3273592561,114.1687695398,1542880701
222046013,Open_University_of_Hong_Kong,ho-man-tin-hong-kong,22.31615,114.18043,1543168880
219108527,_,mong-kok-hong-kong,22.3175895348,114.1729259491,1543070892
244321233,Hong_Kong_Art_Centre,caroline-hill-hong-kong,22.28032,114.17088,1543145689
576837726,Takumi_by_Daisuke_Mori,caroline-hill-hong-kong,22.2763805,114.1768723,1543120990
214769925,_,mong-kok-hong-kong,22.3273592561,114.1687695398,1542880701
1015854427,Princess_Cafe,caroline-hill-hong-kong,22.2815094,114.1823807,1536380493
15033173,_,kuan-tang-hong-kong,22.3090446574,114.2121181579,1538042355
94036101,Mansons_Lot,caroline-hill-hong-kong,22.27572,114.17158,1543117282
