id,name,area,lat,lng,last_updated
1018776195,Fontana_Di_Trevi_Roma,campo-marzio-italy,41.9011916706,12.4832038939,1548708527
235445983,Colosseo_Roma_Italia,san-paolo-italy,41.891202724,12.4916398009,1548708538
280696984,Colosseum_Rome_Italy_Coliseo_Roma_Italia_,san-paolo-italy,41.8910192407,12.4917774872,1548611956
31009605,Colosseo,san-paolo-italy,41.8911982721,12.4913790083,1548708476
45749,Pantheon,campo-marzio-italy,41.8992047125,12.4768411379,1548707879
336844629,Piazza_Navona,campo-marzio-italy,41.8990869446,12.4729801679,1548708476
294851377575039,Colosseum_Coliseum_Rome,san-paolo-italy,41.8902340553,12.492442131,1548696449
213004466,Colosseum,san-paolo-italy,41.890606085,12.492490641,1529433107
1002881420,Piazza_di_Spagna_Roma,campo-marzio-italy,41.9057114227,12.4817730748,1548678612
575932082,Castel_SantAngelo_Roma,campo-marzio-italy,41.9030442368,12.4663452159,1548666926
213292783,Piazza_Venezia,campo-marzio-italy,41.89639,12.4825,1548708809
255406223,Roman_Forum,san-paolo-italy,41.8922,12.4852,1548708224
337018885,Piazza_del_Popolo,campo-marzio-italy,41.9105555556,12.4763888889,1548703892
336848483,Pantheon_Rome,campo-marzio-italy,41.898561,12.47685,1529019610
745841380,St_Peters_Basilica_Vatican,campo-marzio-italy,41.9000555238,12.4665722025,1548700466
37863275,Roma,campo-marzio-italy,41.9021814523,12.4842511763,1548709012
95753,Fori_Imperiali,san-paolo-italy,41.8932261448,12.4856650815,1548708899
12905,MAXXI_Museo_nazionale_delle_arti_del_XXI_secolo,tor-di-quinto-italy,41.9287046623,12.4668468048,1548707800
214519807,Altare_della_Patria,san-paolo-italy,41.8945833333,12.4830555556,1548707742
372565090,Colliseum_Rome_Italy,san-paolo-italy,41.8904428454,12.4922985474,1547762640
291174,Terrazza_del_Pincio,campo-marzio-italy,41.9107838841,12.4784767395,1548707844
1165270,Chiostro_del_Bramante,campo-marzio-italy,41.8996777691,12.47143507,1548708596
90363,Ponte_Milvio,tor-di-quinto-italy,41.9371290407,12.4665759457,1548708718
214612710,Auditorium_Parco_della_Musica_Roma,tor-di-quinto-italy,41.9293415823,12.4743341464,1548708805
1573099719451878,Colosseum_Coliseum_Rome,san-paolo-italy,41.89002,12.49415,1548709362
317927898,Castel_SantAngelo,campo-marzio-italy,41.9028584246,12.4663041827,1548698039
616768,Giardino_degli_Aranci,san-paolo-italy,41.8849239423,12.4798421449,1548708200
1315291,Musei_Capitolini,san-paolo-italy,41.8933786846,12.4826666667,1548707278
5700170,Colloseum_Ancient_Rome,san-paolo-italy,41.8906680839,12.4919102703,1548709205
2095295337390487,Stadio_Olimpico,tor-di-quinto-italy,41.9338616,12.4537852837,1537474595
214428746,Palatine_Hill,san-paolo-italy,41.8883333333,12.4869444444,1548709433
504827683,Ponte_SantAngelo,campo-marzio-italy,41.901803,12.46645,1548708741
2092623637645301,Castel_SantAngelo,campo-marzio-italy,41.9027611118,12.4661329322,1548709520
1020312373,Pantheon_Basilica_di_Santa_Maria_ad_Martyres_Roma,campo-marzio-italy,41.8992691,12.4769602,1548705232
327531297,Spanish_Steps,campo-marzio-italy,41.90611,12.48278,1497804544
228679264341367,Piazza_di_Spagna,campo-marzio-italy,41.905901,12.4823709,1548678612
371603,Piazza_Del_Campidoglio,san-paolo-italy,41.8934799,12.48264,1548709270
248360449,Colosseo,san-paolo-italy,41.8910080725,12.491547018,1548706748
336888294,Campo_de_Fiori,campo-marzio-italy,41.8956,12.47217,1548671482
155131,Via_del_Corso,campo-marzio-italy,41.9050803861,12.4789759954,1545217633
5332978,Roma,campo-marzio-italy,41.9057824966,12.4821424484,1537547465
221744845,Parco_degli_Acquedotti,cinecitta-italy,41.8506204431,12.5593865327,1537383883
1516734475005815,Stadio_Olimpico_Di_Roma,tor-di-quinto-italy,41.9338616,12.4537852837,1548707312
522021231,St_Peters_Basilica_Vatican_City,campo-marzio-italy,41.9005969983,12.4666911358,1508689461
218787898,Roman_Forum_and_Palantine_Hill,san-paolo-italy,41.8925227225,12.4868042842,1548690970
338544457,Stadio_Olimpico,tor-di-quinto-italy,41.933872,12.454714,1543487309
127067931419701,Piazza_del_Popolo_Roma,campo-marzio-italy,41.91097,12.4756699,1546189639
245258037,Spanish_Steps_Palazzo_Di_Bolgna_Roma,campo-marzio-italy,41.9058283652,12.4824757068,1548698893
362598467,Monumento_Vittorio_Emanuelle,san-paolo-italy,41.8953483471,12.4828369149,1548021722
363559323,Roma_Piazza_Di_Spagna,campo-marzio-italy,41.9058886294,12.4820854554,1548678612
366334673,Vittoriano_piazza_Venezia,san-paolo-italy,41.8953482739,12.4828310964,1548705614
538314773226928,Foro_Romano,san-paolo-italy,41.8919490723,12.4863282278,1548690970
213618625,ROMA_La_Capitale,san-paolo-italy,41.9003019799,12.4991638457,1548687488
237547935,Collosseo_Colosseum_Roma_Rome,san-paolo-italy,41.8904185199,12.4922760912,1535381688
380100628,Circus_Maximus,san-paolo-italy,41.8859,12.4857,1548706735
1024807045,Zuma_Rome,campo-marzio-italy,41.9046618723,12.4786575304,1548708690
241736576,Colosseo,san-paolo-italy,41.8913003912,12.4915762979,1548706748
124416051520830,Altare_della_Patria,san-paolo-italy,41.8954289752,12.4828475561,1548709878
32040,Piazza_Cavour,campo-marzio-italy,41.9056247703,12.4697471908,1548704125
1669682,Testaccio,san-paolo-italy,41.8769828945,12.4751735543,1548704540
236585915,Arch_of_Constantine,san-paolo-italy,41.8900118687,12.4909041211,1548708894
214434975,Pincio_Roma,campo-marzio-italy,41.9111239002,12.4785562376,1548707689
1614423,Stazione_Tiburtina,monte-sacro-italy,41.9105781911,12.5300957386,1548707552
49211524,Altare_della_Patria,san-paolo-italy,41.8953754554,12.4828311048,1548705614
1726481,Hotel_de_Russie_a_Rocco_Forte_Hotel,campo-marzio-italy,41.9101375696,12.477711,1548698866
278631814,Internazionali_Di_Tennis_BNL_Foro_Italico_Roma,tor-di-quinto-italy,41.9281879978,12.4562973161,1548708029
213631111,Bocca_della_Verit_,san-paolo-italy,41.8880555556,12.4816666667,1548702955
214618990,Ponte_Sisto,campo-marzio-italy,41.892789736,12.4711460672,1548702364
242303080,Villa_Doria_Pamphili,campo-marzio-italy,41.88776944,12.45055833,1548693941
252233468,Roma_Live,san-paolo-italy,41.8897548444,12.492313385,1548513282
240467057,Villa_Medici_Villa_M_dicis,campo-marzio-italy,41.9083001119,12.4823299463,1548700005
251838596,Circo_Massimo,san-paolo-italy,41.883611,12.488056,1548693061
471728,Castel_SantAngelo,campo-marzio-italy,41.902455579,12.4662019527,1459976446
509607,Lanificio159,monte-sacro-italy,41.9262012454,12.5390192443,1548710889
238836555,Via_Tuscolana,cinecitta-italy,41.8585212687,12.559889586,1548709994
351979232,Galleria_Alberto_Sordi,campo-marzio-italy,41.9010893655,12.4809354396,1548685125
234434239,Colosseum_Rome,magliana-italy,41.8149824436,12.3999117476,1539551229
213484773,Roma_Parioli,tor-di-quinto-italy,41.9286732603,12.4859973777,1548704350
351882858,Largo_di_Torre_Argentina,campo-marzio-italy,41.89528,12.47694,1548709310
225537380,Fontana_dei_Quattro_Fiumi,campo-marzio-italy,41.8988888889,12.4730555556,1548708376
220712962,GIOLITTI,campo-marzio-italy,41.9011546927,12.4772137241,1548706094
412378910,Piazza_di_Spagna,campo-marzio-italy,41.90595,12.48205833,1478438451
371278594,Piazza_del_Popolo,campo-marzio-italy,41.910714,12.476317,1548711154
124135184865856,Monumento_a_Vittorio_Emanuele_II,campo-marzio-italy,41.8951604652,12.4827171018,1548709437
219829338,Via_Condotti,campo-marzio-italy,41.90515,12.48046,1548707874
248374526,Tiber_Island,san-paolo-italy,41.8902757,12.477628,1548699815
242123080,The_Colloseum_Rome_Italy,san-paolo-italy,41.8907204786,12.4918925669,1494025749
213234791,Via_dei_Fori_Imperiali,san-paolo-italy,41.8919444444,12.4891666667,1548690272
237462720,Rome_Marriott_Park_Hotel,magliana-italy,41.8255034836,12.392623949,1548705274
444699206,Outdoor_Festival,tor-di-quinto-italy,41.9279404,12.4671602,1548407766
221222985,Capitoline_Hill,san-paolo-italy,41.8934120673,12.4833349444,1548702932
249264661,Piramide_Cestia,san-paolo-italy,41.8759273261,12.4815513876,1548693713
220967236,Stadio_olimpico_di_Roma,tor-di-quinto-italy,41.933322585,12.4560622987,1546362407
258684254663276,Spanish_Steps,campo-marzio-italy,41.905855174,12.4818588012,1548678612
386067484,Curva_Sud,tor-di-quinto-italy,41.9329348325,12.4554100365,1548709578
215384721,Via_Cola_di_Rienzo,campo-marzio-italy,41.9078677713,12.4641162693,1548688662
307983136,Trevi_Fountain,campo-marzio-italy,41.900875,12.4831666667,1548707404
215408573,Antico_Caff_Greco,campo-marzio-italy,41.90562,12.48157,1548708105
380860480,Piazza_Navona,campo-marzio-italy,41.8988888889,12.4730555556,1548710465
403070269,Stadio_Olimpico_Curva_Nord_12,tor-di-quinto-italy,41.9343565213,12.4545283895,1548711533
615631,Lo_Zodiaco,tor-di-quinto-italy,41.9233228003,12.4525417995,1548702110
744979036,Museo_Nazionale_di_Castel_SantAngelo,campo-marzio-italy,41.902785377,12.466104618,1548704187
369634640111250,Castello_Santangelo_Roma,campo-marzio-italy,41.90263,12.46633,1548698039
1021802398,Piazza_Di_Spagna,campo-marzio-italy,41.9059520908,12.4819575683,1473065967
1725340761072291,Foro_Italico,tor-di-quinto-italy,41.93312,12.45685,1548710653
314602543,Via_Appia_Antica,cinecitta-italy,41.8665762995,12.5308053116,1548700649
213184902,Via_Appia_Antica,cinecitta-italy,41.8499189908,12.5233487476,1548709976
2977751,Il_Roseto_Comunale_Roma,san-paolo-italy,41.8853136991,12.4833976384,1548543000
229635833,Museo_dellAra_Pacis,campo-marzio-italy,41.9055601476,12.4754115815,1548698385
222240152,Gianicolo_Lazio_Italy,campo-marzio-italy,41.8929159826,12.4606643245,1548707398
402209596,Cinecitt_,cinecitta-italy,41.85,12.566667,1548707311
287230213,Roma_Capitale,san-paolo-italy,41.892905183,12.4826470461,1548692025
206749,Bar_del_Fico,campo-marzio-italy,41.899473854,12.470613273,1548630475
591724960951446,Complesso_Del_Vittoriano,campo-marzio-italy,41.8941572472,12.4843469246,1548711147
260445307655986,Florencia_Italia,tor-di-quinto-italy,41.9437777712,12.4746810318,1548710475
268846778,Galleria_Doria_Pamphilj_Palazzo_Doria_Pamphilj,campo-marzio-italy,41.8976612927,12.4812767527,1548706348
737127990,Dolce,monte-sacro-italy,41.928933214,12.517823128,1548707726
1009472567,Spanish_steps_Roma_Italy,campo-marzio-italy,41.9058285435,12.4823957419,1548707874
225508829,Tiber_River_Rome,campo-marzio-italy,41.9029489978,12.4701371416,1528916295
282700448,Piazza_Di_Spagna_Rome_Italy,campo-marzio-italy,41.9051859044,12.4826698164,1475657803
251824155236686,Guido_Reni_District,tor-di-quinto-italy,41.9275858066,12.467034552,1548707838
339477379,Internazionali_BNL_dItalia,tor-di-quinto-italy,41.9286700245,12.4566418544,1548657406
1022394884,Ponte_della_musica,tor-di-quinto-italy,41.9267084596,12.4604797193,1548705244
735179394,Spanish_Steps_Rome_Italy,campo-marzio-italy,41.905855174,12.4818588012,1548678612
667311403669640,Piazza_Di_Spagna_Roma,campo-marzio-italy,41.90657,12.48145,1548712230
337438360,SantIgnazio_Church_Rome,campo-marzio-italy,41.899,12.4797777778,1548684670
734884909,Ponte_Milvio,tor-di-quinto-italy,41.9355555556,12.4669444444,1548708690
259016,Suprema_Corte_Di_Cassazione,campo-marzio-italy,41.9051372203,12.4699902675,1548712565
853023642,NICE_Disco,tor-di-quinto-italy,41.9359901076,12.4557924271,1548693644
213860848,ROMA_citt_eterna,campo-marzio-italy,41.8911434304,12.4915804932,1548691362
214635245,Via_Margutta,campo-marzio-italy,41.9088888889,12.4791666667,1548711628
242620399,Pincio_villa_Borghese,campo-marzio-italy,41.9107954663,12.4801015072,1548711226
223221174,Cinecitt_Lazio_Italy,cinecitta-italy,41.85,12.5667,1548706493
1157991394324001,Fontano_De_trevi,campo-marzio-italy,41.9009059709,12.4832276602,1548343495
1375217589233652,Scalinata_della_Trinit_dei_monti_Spanish_Steps,campo-marzio-italy,41.9059080786,12.4825586402,1548678612
339173030,Ponte_Umberto_I,campo-marzio-italy,41.9023952407,12.4714262897,1548708928
1806127,Shari_Vari,campo-marzio-italy,41.8972453624,12.4761269876,1548691234
282578952,Magnum_Pleasure_Store_Roma,campo-marzio-italy,41.9046696407,12.4778887895,1548433085
297849928,Pantheon_Piazza_Della_Rotonda,campo-marzio-italy,41.8992800938,12.4768151147,1529076994
400332,Auditorium_Conciliazione,campo-marzio-italy,41.9030307556,12.4636568485,1548618516
222756226,Sheraton_Parco_de_Medici_Rome_Hotel,magliana-italy,41.8150690947,12.3998678761,1548624158
220055215,San_Luigi_dei_Francesi,campo-marzio-italy,41.8994444444,12.4747222222,1548700104
215832046,Ponte_Vittorio_Emanuele_II,campo-marzio-italy,41.901111,12.464444,1548702138
1056774,Museo_Nazionale_Romano_Palazzo_Altemps,campo-marzio-italy,41.90108,12.47313,1548711954
661840233984294,Piazza_Navona_Fontana_Del_Moro,campo-marzio-italy,41.8986104185,12.4731519968,1523644901
378409789,Trastevere_Roma,campo-marzio-italy,41.891215491,12.469490469,1548703877
393277810,Ara_Pacis,campo-marzio-italy,41.9063888889,12.4755555556,1548670989
260690401,Blume_Lounge,tor-di-quinto-italy,41.938138981,12.4779877067,1548707597
267610200392396,Campo_dei_Fiori_Square,campo-marzio-italy,41.8956298339,12.4722451152,1548713664
249131684,Cinecitt_Studios_Roma,cinecitta-italy,41.852086562,12.5775926225,1548675153
4019213,RS_eventi_Club,campo-marzio-italy,41.9002966529,12.4784088135,1546426200
607776558,Spanish_Steps_of_Rome,campo-marzio-italy,41.9059276192,12.4826281018,1545224438
586481,Stadio_dei_Marmi,tor-di-quinto-italy,41.9344014185,12.4573049871,1548709914
260227043,Scalinata_di_Piazza_di_Spagna,campo-marzio-italy,41.9057963945,12.4822958966,1548678612
220092494,Plaza_Navona,campo-marzio-italy,41.8988888889,12.4730555556,1548713052
240131796,Stadio_Olympico_Rome,tor-di-quinto-italy,41.9338328998,12.4550194851,1495057150
215887723,Piazza_della_Rotonda,campo-marzio-italy,41.89930556,12.47675,1548702834
213594076,Ponte_SantAngelo,campo-marzio-italy,41.901803,12.46645,1548711142
422929324748367,HOTEL_BUTTERFLY,tor-di-quinto-italy,41.9278768093,12.4556851387,1548523857
352615589,Foro_Italico,tor-di-quinto-italy,41.9322222222,12.4583333333,1548683632
236590897,Piazza_Navona_Roma,campo-marzio-italy,41.8994414024,12.47292941,1470899913
524753291,Piazza_Venezia,campo-marzio-italy,41.8958537914,12.4825989111,1548712517
322734964,Piazza_di_Spagna,campo-marzio-italy,41.90595,12.48205833,1529175885
2108492346047550,Via_del_Corso,campo-marzio-italy,41.9090289053,12.4782976776,1548709958
42623052,P_tisserie_Ladur_e_Roma,campo-marzio-italy,41.9044467635,12.47998816,1548491214
1024901729,Pantheon_Polo_Museale_del_Lazio,campo-marzio-italy,41.89927,12.47696,1548710585
218137601,Parco_Di_Villa_Borghese,campo-marzio-italy,41.911057863,12.4795919367,1548711226
352943306,Roscioli_Ristorante_Salumeria,campo-marzio-italy,41.8941991026,12.4743225441,1548693870
968312,Salotto42_Roma,campo-marzio-italy,41.9000874837,12.4794980823,1548658787
750822470,Fontana_Di_Treviri_Roma,campo-marzio-italy,41.9009371056,12.4832999054,1548707404
234817960,Via_Cassia,tor-di-quinto-italy,41.9628809802,12.4474906091,1548710131
239253659,Flaminio_Piazza_del_Popolo,campo-marzio-italy,41.912744,12.476464,1548706956
1025421470,Stadio_Olimpico_Roma,tor-di-quinto-italy,41.9338616,12.4537852837,1544995483
87893285,La_Vi_Latteria_Vineria,campo-marzio-italy,41.9047524396,12.4774217606,1547629379
406800957,Restauro_Fontana_di_Trevi,campo-marzio-italy,41.9009788845,12.4834683897,1548343495
89393784,Baja,campo-marzio-italy,41.9114402913,12.4720626583,1548707976
204584840097443,Cinecitt_Studios,cinecitta-italy,41.84976408,12.576171621,1548712274
217373186,Tufello,monte-sacro-italy,41.948735,12.531881,1548701362
827588985,Camera_dei_deputati,campo-marzio-italy,41.9010887,12.4779797,1548708102
1845597928996162,Ginger_Sapori_e_Salute,campo-marzio-italy,41.9041455766,12.4793314934,1548713342
213088192,Palazzo_Montecitorio,campo-marzio-italy,41.9008511976,12.478590761,1548705769
502491520,Universit_Cattolica_del_Sacro_Cuore_Sede_Di_Roma,tor-di-quinto-italy,41.9329675,12.426526,1548711143
1029148984,Coropuna,monte-sacro-italy,41.92631,12.53696,1548714967
684713804,Viteculture_Quirinetta,campo-marzio-italy,41.8999779,12.4823015,1548586584
268310314,Roma_Piazza_Sempione,monte-sacro-italy,41.9355847608,12.535184146,1548694578
328831566,Rainbow,monte-sacro-italy,41.9092,12.5371,1548629840
585605690,Basilica_Di_San_Pietro_Roma,campo-marzio-italy,41.9024504185,12.4629918623,1548672595
629604,Cinecitt_Due,cinecitta-italy,41.8532526911,12.5715183393,1548709490
972216762914112,Campo_de_Fiore,campo-marzio-italy,41.8956739712,12.4721526919,1547479533
2010108329237914,Campo_de_Fiori,campo-marzio-italy,41.8955794067,12.4721295089,1543673648
419471,Piazza_Farnese,campo-marzio-italy,41.8951445875,12.4712592183,1548694345
259566375,Casina_Valadier,campo-marzio-italy,41.9102811851,12.4798304569,1548699426
403866852,Piazza_Navona,campo-marzio-italy,41.8988888889,12.4730555556,1548713723
228084650,Grand_Hotel_Plaza_Roma,campo-marzio-italy,41.90519,12.47865,1548701129
242464089,692_Secret_Garden,cinecitta-italy,41.8658902997,12.5421819416,1548625341
242464089,692_Secret_Garden,torrenova-italy,41.8658902997,12.5421819416,1548625341
266894,Scalinata_trinit_dei_monti_Piazza_di_Spagna,campo-marzio-italy,41.9059118122,12.4824383365,1548590875
1031256893,Lungo_Tevere_Palazzaccio,campo-marzio-italy,41.9023094774,12.471491542,1548701161
237258142,Piazza_della_Minerva,campo-marzio-italy,41.89806,12.4775,1548709129
265056285,Colosseum_Rome_Italy,tor-di-quinto-italy,41.9437200092,12.4745897635,1548611956
215073927,MET_Concept_Restaurant_Ponte_Milvio_Rome,tor-di-quinto-italy,41.9378527487,12.4664769448,1548703880
150513915490322,Campo_de_Fiori,campo-marzio-italy,41.8955194467,12.4722975833,1547479533
222277666,Via_della_Conciliazione,campo-marzio-italy,41.9023,12.462,1548675951
235228124,Vittoriano,campo-marzio-italy,41.8945833333,12.4830555556,1548715530
215027939,Pantheon_Roma,campo-marzio-italy,41.8993202372,12.4769742249,1545692416
42737238,Spanish_Steps_Rome_Italy,campo-marzio-italy,41.9057963113,12.4825548678,1475000140
1342575642445614,Castel_Santangelo_Roma,campo-marzio-italy,41.90263,12.4663299,1548698039
1022015776,Palazzo_Dama,campo-marzio-italy,41.9104996853,12.4735602024,1548707513
451707,Piazza_di_Pietra,campo-marzio-italy,41.9000177,12.479501,1531406185
216352104,Piazza_Del_Gianicolo,campo-marzio-italy,41.8917182308,12.4614414319,1548695920
224154461,Fontana_dei_4_fiumi_Bernini_Piazza_Navona,campo-marzio-italy,41.8991308333,12.4731028791,1548639901
2962878,Orto_Botanico_di_Roma,campo-marzio-italy,41.8924289155,12.4651182141,1505577675
240473894,Via_Giulia,campo-marzio-italy,41.89417,12.47007,1548705426
498676,Via_dei_Condotti,campo-marzio-italy,41.90516,12.48053,1548709347
249914913,Roma_Zona_Tiburtina,monte-sacro-italy,41.9085078484,12.5426594975,1548620328
912913687,Torre_Angela,torrenova-italy,41.864318,12.625711,1548700972
332051,Piazza_San_Silvestro,campo-marzio-italy,41.9025667124,12.4810888491,1548678036
884172958350948,Factory_Club_Roma,tor-di-quinto-italy,41.9338591198,12.4520158768,1548714991
237395671,Fiume_Tevere_Roma,campo-marzio-italy,41.9133323167,12.4719287,1528807560
213292491,Lungotevere_Trastevere,campo-marzio-italy,41.8933474605,12.4687084546,1542396744
244409498,Castel_St_Angelo,campo-marzio-italy,41.9013219399,12.4665206312,1548698039
849542757,Torre_Maura,torrenova-italy,41.866776,12.596745,1548710806
871395816,Pantheon_Rome,campo-marzio-italy,41.8970489477,12.4661407547,1529076994
288502080,Black_Garden,cinecitta-italy,41.8445065337,12.5737278138,1548697228
568520537,PIAZZA_DI_SPAGNA,campo-marzio-italy,41.9059609248,12.4823307635,1548711085
1751866691731293,Parco_degli_Acquedotti_Romani,cinecitta-italy,41.8616,12.5539,1548707396
351633,Teatro_Olimpico,tor-di-quinto-italy,41.9263194828,12.4619267292,1548715166
2742077,Via_del_Babuino,campo-marzio-italy,41.9101904488,12.4778222113,1548705605
239326784,Officine_Farneto,tor-di-quinto-italy,41.938329764,12.451245458,1548698488
217214072,Piazza_del_Pantheon,campo-marzio-italy,41.8993140002,12.4768538904,1548519765
227768826,Babingtons_Tea_Room,campo-marzio-italy,41.90608,12.48226,1548700858
215324658,Open_Baladin_Roma,campo-marzio-italy,41.89367,12.47435,1548689026
4793065,Collina_Fleming,tor-di-quinto-italy,41.9425310848,12.4741548124,1548711768
215558096,Chalet_nel_Bosco,tor-di-quinto-italy,41.9336992212,12.4521736693,1535326083
544108502591276,Enjoy_Chiostro_Del_Bramante,campo-marzio-italy,41.9000916772,12.4715145945,1548706892
238743659,Studi_Rai_Via_Teulada_Studio_1,tor-di-quinto-italy,41.9200875531,12.455422053,1548709951
163330577577055,Spanish_Steps_Rome_Italy,campo-marzio-italy,41.9058949261,12.4822775009,1548678612
381618281,Parco_degli_Acquedotti,cinecitta-italy,41.847,12.562,1541103646
216551891,Gelateria_Della_Palma,campo-marzio-italy,41.90041,12.47652,1548702880
162724511123340,Talenti_Roma,monte-sacro-italy,41.94391,12.54692,1548703968
2057095867903815,Enjoy_Chiostro_Del_Bramante,campo-marzio-italy,41.9000328368,12.4715487516,1546378942
3782595,CANTINA_CUCINA,campo-marzio-italy,41.8979693812,12.4716645554,1548619812
7736346,BARRIO_LATINO,torrenova-italy,41.8484433482,12.5980809331,1548713407
1071317,Via_del_Babuino,campo-marzio-italy,41.9081885469,12.4792763815,1548705605
28746435,Fontana_Di_Trevi_Roma,campo-marzio-italy,41.900959,12.4826298,1451052719
1027918501,Trullo_Roma_,magliana-italy,41.843174,12.436717,1548715130
218638137,CampusX,torrenova-italy,41.84582,12.62801,1548707769
2231546,Caff_Tazza_dOro,campo-marzio-italy,41.89961,12.47739,1548702499
234866532,Conca_dOro,monte-sacro-italy,41.9391,12.5274,1548703771
213673121,Villa_Farnesina,campo-marzio-italy,41.8933707301,12.4672262093,1548671797
399935750,Piazza_Navona,campo-marzio-italy,41.8988888889,12.4730555556,1548700315
241416887,Castello_San_Angelo_Roma,campo-marzio-italy,41.9029317746,12.4662324145,1537312418
2983,Viale_Libia,monte-sacro-italy,41.9308855213,12.5183316185,1548705456
1022220843,Pantheon_Roma,campo-marzio-italy,41.89927,12.47696,1529076994
213145324,Piazza_Colonna,campo-marzio-italy,41.901056,12.479917,1539335201
222199496,Agostino_Gemelli_University_Polyclinic,tor-di-quinto-italy,41.93027778,12.42972222,1548612209
24252335,Baccano,campo-marzio-italy,41.900403188,12.482332729,1548710632
1377487,Fontana_della_Barcaccia,campo-marzio-italy,41.9058333333,12.4822916667,1548597559
3742967,Gelateria_Frigidarium_Roma,campo-marzio-italy,41.89828,12.47044,1548057645
222917151547057,Venchi_Cioccolato_Gela,campo-marzio-italy,41.9001428,12.4806129,1548709579
58629923,Via_dei_Condotti,campo-marzio-italy,41.9051239197,12.4806026438,1548707874
276301579187842,Centro_Storico,campo-marzio-italy,41.899,12.4766,1548715637
240139459,Roma_Quartiere_Talenti_Montesacro,monte-sacro-italy,41.9358099,12.53488,1548665541
259535323,Plaza_Venezia,campo-marzio-italy,41.89639,12.4825,1548708184
375242106,Gianicolo_Roma,campo-marzio-italy,41.899495,12.46189,1548695920
761375,Cinema_Adriano,campo-marzio-italy,41.9059353,12.4697218,1548695177
234790201,Universit_di_Roma_Tor_Vergata_Facolt_di_Lettere_e_Filosofia,torrenova-italy,41.8524668989,12.6212116175,1548524965
249163282,Temple_of_Hadrian,campo-marzio-italy,41.89999,12.47951,1548665154
263143115,Fendi_Roma,campo-marzio-italy,41.9046207222,12.4783991012,1548592542
277445,Policlinico_Tor_Vergata,torrenova-italy,41.8575299377,12.6312652455,1548704227
244860016,Monti_Tiburtini,monte-sacro-italy,41.9151472292,12.5491486811,1548708886
281543105,Magliana_Lazio_Italy,magliana-italy,41.8333,12.4167,1548709765
430968137,Lian_Club,campo-marzio-italy,41.9056295724,12.4740476579,1548587212
218453879,SantAndrea_della_Valle,campo-marzio-italy,41.8963920345,12.474278559,1548593745
234278843,Accademia_di_Costume_e_di_Moda,campo-marzio-italy,41.9011623062,12.4680777168,1548700586
242017894,Roma_Portuense,magliana-italy,41.8519811133,12.4353037187,1548709339
235060742,Santa_Maria_sopra_Minerva,campo-marzio-italy,41.8980555556,12.4783333333,1548700646
280493406,Campo_Marzio_Lazio_Italy,campo-marzio-italy,41.9071573832,12.4793195469,1548707513
228668544,Laghetto_Di_Villa_Ada,monte-sacro-italy,41.9349195978,12.5040055066,1548260405
214986973,Colloseo_Roma,campo-marzio-italy,41.9048203472,12.4793880674,1536250186
326033930,Vintro_Bar_Bites,monte-sacro-italy,41.9458634079,12.5299661996,1548699429
238775160,Ospedale_Pediatrico_Bambino_Ges_,campo-marzio-italy,41.8970848873,12.4607128666,1548696374
236251310,Universit_LUMSA,campo-marzio-italy,41.90327,12.4626699,1548698320
354698712,Via_del_Corso,campo-marzio-italy,41.9060277778,12.4782722222,1529407926
234398960,Gusto_al_28,campo-marzio-italy,41.90612,12.47715,1548696802
112527346,Proj3ct_CIBO,monte-sacro-italy,41.9354243523,12.5335581273,1548672789
783396228,Malcesine_Lake_Garda,campo-marzio-italy,41.8990239028,12.4778928374,1548709160
131578413912851,Feria_Tetto_del_Lanificio,monte-sacro-italy,41.9261124017,12.5392444326,1548680912
218864530,Ristorante_Pierluigi,campo-marzio-italy,41.89677,12.46858,1548690341
250833389,CocoLoco,tor-di-quinto-italy,41.938504024,12.46873065,1548691415
250833389,CocoLoco,campo-marzio-italy,41.938504024,12.46873065,1548691415
660993740729722,Gucci,campo-marzio-italy,41.90566,12.48182,1548699327
295442740,Economia_Tor_Vergata,torrenova-italy,41.853250979,12.6242145904,1548665476
268093195,Palazzo_Braschi,campo-marzio-italy,41.89749,12.472733,1548700233
269202164,Pietralata,monte-sacro-italy,41.914722,12.555,1548624882
49224869,Palazzo_FENDI,campo-marzio-italy,41.9046305499,12.4786829424,1548592542
1122247,Scholars_Lounge_Rome,campo-marzio-italy,41.89625,12.47986,1548605934
1184760,Via_Frattina,campo-marzio-italy,41.9042699,12.48122,1548649117
113917342,Lungotevere_Flaminio,tor-di-quinto-italy,41.9233515204,12.469675646,1548678360
17146222,Passeggiata_del_Gianicolo,campo-marzio-italy,41.8965890375,12.4613740614,1548617260
505680993,Obic_Campo_dei_Fiori,campo-marzio-italy,41.8956559615,12.4720410727,1548671482
214609603,Colosseum_Roma_Italy,campo-marzio-italy,41.89929956,12.46284252,1548611956
542512,Fontana_delle_Tartarughe,campo-marzio-italy,41.8938055556,12.4775,1547764902
217548986,Facolt_Medicina_Tor_Vergata,torrenova-italy,41.8563203205,12.6329050091,1548692030
978617224,Quadraro,cinecitta-italy,41.85338,12.54926,1548700674
1012541754,Pietralata_Rome_,monte-sacro-italy,41.9152777778,12.5555555556,1548705606
170797,Centro_Commerciale_La_Romanina,torrenova-italy,41.8511053553,12.5991128297,1548622301
1003817431,Castello_di_San_Giorgio,campo-marzio-italy,45.16055556,10.8,1548711959
1882470335368611,Terrazza_Borromini,campo-marzio-italy,41.89914,12.4723,1548531749
351883483,Palazzo_Venezia,campo-marzio-italy,41.89618,12.48157,1548673829
129376841025631,Via_del_Corso,campo-marzio-italy,41.90702,12.47789,1548703498
213996385,SantAgnese_in_Agone,campo-marzio-italy,41.8989697573,12.4728658581,1548705581
402981324,Piazza_del_Popolo,campo-marzio-italy,41.9105555556,12.4763888889,1548689237
236328013,Hotel_Raphael,campo-marzio-italy,41.9000119384,12.4721241232,1548633035
869522,Facolt_Di_Architettura_Valle_Giulia,tor-di-quinto-italy,41.9189520862,12.4801501415,1548708936
218687051,Vatican_Museum_And_Sistine_Chapel_Vatican_City,campo-marzio-italy,41.89949,12.47599,1548676406
346270124,Porta_Furba_Quadraro,cinecitta-italy,41.8638,12.5483,1548600360
2007584616173830,Piazza_di_Spagna_Apartment,campo-marzio-italy,41.9059400473,12.4823766296,1548678612
238713096,Roma_Castel_Santangelo,campo-marzio-italy,41.9013369899,12.4664450117,1548698039
1019996295,Piazza_Del_Popolo_Roma,campo-marzio-italy,41.911276785,12.476462938,1528579645
13816786,Gran_Meli_Roma,campo-marzio-italy,41.8989766523,12.4611636695,1548608622
505814117,Eur_Zona_Torrino,magliana-italy,41.816104871,12.4418871,1548532909
216381080,The_Spanish_Steps_Roma_Lazio_Italy,campo-marzio-italy,41.9060470636,12.4818297641,1548707874
235652130,DEAR_Studi_Televisivi_Nomentano,monte-sacro-italy,41.9411630864,12.5477721466,1548711447
780319538769698,Macello_Roma,tor-di-quinto-italy,41.9377116941,12.4667234989,1548674954
1029257751,Tor_Vergata,torrenova-italy,41.828718,12.6136206,1548707230
291103734697756,Coliseo_Foro_Romano_y_Palatino_Roma,campo-marzio-italy,41.9010055044,12.4821225372,1548708069
238706182,Roma_Ponte_Cavour,campo-marzio-italy,41.904839288,12.4739296254,1544431249
240950552,Fountain_Travi,campo-marzio-italy,41.9009282263,12.4833021462,1548706929
241488186,SantIvo_alla_Sapienza,campo-marzio-italy,41.8983333333,12.4744444444,1548715303
221121811,The_Spanish_Steps_Rome,campo-marzio-italy,41.8974782782,12.4779549569,1548707874
235000960,Via_dei_Condotti,campo-marzio-italy,41.9052549142,12.4807037711,1548712052
527558807346891,Teatro_Argentina_Teatro_di_Roma,campo-marzio-italy,41.8955690267,12.4761772156,1548718029
282071059,Scalinata_Trinit_Dei_Monti,campo-marzio-italy,41.9060387734,12.4829135795,1548678612
509636,Piazza_San_Lorenzo_in_Lucina,campo-marzio-italy,41.9036274146,12.4782614725,1548669057
249535,Piazzale_Flaminio,campo-marzio-italy,41.9120873264,12.4756743899,1548700848
257670667,Pompi_Roma_Tiramisu,campo-marzio-italy,41.90644,12.48052,1548699736
516525970,SantEustachio,campo-marzio-italy,41.898316,12.475426,1548709217
493396839,La_Lanterna_Di_Fuksas,campo-marzio-italy,41.9048984787,12.4785086759,1548517269
217580340,Coliseum_Rome,campo-marzio-italy,41.9068729888,12.4688843538,1536250186
273827237,Piazza_di_Spagna_9,campo-marzio-italy,41.9058972586,12.48218843,1548719210
277506801,J_K_Place_Roma,campo-marzio-italy,41.90442,12.47696,1548706431
1058298940974403,Piazza_Campo_Di_Fiori,campo-marzio-italy,41.8955710192,12.4722891796,1548671482
1011985961,Universit_degli_Studi_di_Roma_Tor_Vergata,torrenova-italy,41.8513184202,12.628633976,1548714929
709535382,Punta_Della_Suina_Gallipoli,magliana-italy,41.8563653374,12.4416830826,1548608681
5978433,Assunta_Madre,campo-marzio-italy,41.89554,12.46873,1548455179
1018923769,Vera_Event,campo-marzio-italy,41.8988991647,12.4709308147,1520520297
296524732,Palazzo_Valentino_Piazza_Mignanelli,campo-marzio-italy,41.9051573069,12.4831621992,1548624352
524579599,Altare_Della_Patria,campo-marzio-italy,41.8964198897,12.4824448334,1548705614
1035579978,Villa_Deste,torrenova-italy,41.8642449217,12.630918945,1547023466
216894849,Lungo_Tevere,campo-marzio-italy,41.8946510223,12.4716575721,1542396744
237901812,The_Village_Roma_Parco_de_Medici,magliana-italy,41.8152398704,12.4123828418,1548720051
3566031,Monteverde_Roma,magliana-italy,41.8520447726,12.4438474169,1548535984
229652041,Palazzo_Spada,campo-marzio-italy,41.8940277778,12.4718055556,1548687907
1112109335481458,Castelo_de_Santo_ngelo,campo-marzio-italy,41.903064,12.466355,1548698039
471007604,Be_Happy_Roma,campo-marzio-italy,41.89909,12.47847,1548424956
235440389,Doria_Pamphilj_Gallery,campo-marzio-italy,41.8976612927,12.4812767527,1548699494
263046756,LUISS_Business_School,monte-sacro-italy,41.92397,12.5209499,1548691947
5304351,Ristorante_Il_Vero_Alfredo,campo-marzio-italy,41.9060137587,12.4774688921,1548704607
238137095,Orvieto_Italy,campo-marzio-italy,41.8954914507,12.4728511026,1548706612
49478394,NUR_BAR,campo-marzio-italy,41.89709,12.47502,1548707895
1028882658,RASPOUTINE_Rome,campo-marzio-italy,41.9105648925,12.4737756501,1548705638
358068695,Ponte_Sisto,campo-marzio-italy,41.892336,12.470794,1548707157
1602090,Studios,monte-sacro-italy,41.9093263484,12.5411349692,1548620328
1024343021,Santa_Maria_del_Popolo,campo-marzio-italy,41.910556804,12.476665615,1548712889
776633,LAntica_Birreria_Peroni,campo-marzio-italy,41.89877,12.48252,1548684247
227630195,Explora_il_Museo_dei_Bambini_di_Roma,campo-marzio-italy,41.9151358871,12.4754332043,1548664923
228394485,Vatican_Rome,campo-marzio-italy,41.8981353161,12.4721992714,1548706545
10981063,Dill_,campo-marzio-italy,41.9069,12.48024,1548620731
4904980,Hotel_Locarno_Roma,campo-marzio-italy,41.9097429568,12.4747471343,1548703132
1803420,John_Cabot_University,campo-marzio-italy,41.8924402818,12.4677652782,1548696656
228798715,Caff_Ciampini,campo-marzio-italy,41.903715995,12.478170575,1548694726
721442216,Rome_Colloseum,torrenova-italy,41.8313308,12.6192846,1537998602
324872429,Museo_Nazionale_Etrusco_di_Villa_Giulia,tor-di-quinto-italy,41.9184145713,12.4778012803,1548697218
245902080,Casa_Coppelle,campo-marzio-italy,41.90076,12.47586,1548714767
1023094314,Piazza_Venezia,campo-marzio-italy,41.89639,12.4825,1548702070
274836926310938,Complesso_Del_Vittoriano_Botero,campo-marzio-italy,41.894149915,12.4842753705,1543505066
389205540,Via_del_Corso,campo-marzio-italy,41.9060277778,12.4782722222,1529491330
374356417,Campo_de_Fiori,campo-marzio-italy,41.8956,12.47217,1548671482
59056,Maccheroni,campo-marzio-italy,41.90058,12.47589,1548511680
1789521884680512,Parco_degli_Acquedotti,cinecitta-italy,41.85309,12.5583069,1546360467
255285819,Via_Margutta,campo-marzio-italy,41.9089,12.4792,1548716347
236331191,Al_Gianicolo,campo-marzio-italy,41.8917849187,12.4609081326,1548693107
228443219,The_Spanish_Steps_And_Piazza_Di_Spagna,campo-marzio-italy,41.906187912,12.483007753,1548678612
85011122,Contemporary_Cluster,campo-marzio-italy,41.89524,12.4755,1548703222
380786931,Ultimi_Romantici_Tattoo,cinecitta-italy,41.8593,12.56053,1548699402
400132658,Osteria_delle_Coppelle,campo-marzio-italy,41.9009182091,12.4760338821,1548694487
846739769,Gelateria_La_Romana,campo-marzio-italy,41.90921,12.47051,1548618157
1029626156,Pane_e_Salame,campo-marzio-italy,41.90064,12.48174,1548664012
241147883,Terrazza_Les_Etoiles_Atlante_Hotels,campo-marzio-italy,41.9049630261,12.4619143861,1548404098
294118830,Rome_Urbe_Airport,monte-sacro-italy,41.953055,12.501945,1548709855
622517343,Radio2,tor-di-quinto-italy,41.9188868,12.4626529,1548716802
387489550,Piazza_Navona,campo-marzio-italy,41.8994155011,12.4731090469,1537623718
235620373,Via_di_Ripetta,campo-marzio-italy,41.9088761982,12.4761036293,1548680756
717525881,Er_Macellaio,magliana-italy,41.799903004,12.424873567,1548709898
227119688,Trinity_College_Pub_Rome,campo-marzio-italy,41.898923,12.4808718,1548717090
287909423,NFM,tor-di-quinto-italy,41.9424234716,12.4747895142,1548661524
256569,Ponte_Vittorio_Emanuele_II,campo-marzio-italy,41.9011906708,12.4643983612,1548601635
1454222161332940,Circus_Maximus,san-paolo-italy,41.8874047696,12.4833939013,1548704478
1905303926392925,Osteria_Trattoria_da_Fortunata,campo-marzio-italy,41.8961839,12.472074,1548712093
1018846275,Campo_De_Fiori_Roma,campo-marzio-italy,41.8954526118,12.4724066461,1548671482
398906382,La_Buvette,campo-marzio-italy,41.90702,12.48009,1548664876
280530858771507,Bufalotta,monte-sacro-italy,41.95823,12.54597,1548708742
329761104171853,Via_del_Corso_Roma,campo-marzio-italy,41.90702,12.47789,1547887127
101147157349009,Piazza_Di_Spagna_Roma,campo-marzio-italy,41.9059474802,12.4822986851,1548678612
338194642,San_Lorenzo_in_Lucina,campo-marzio-italy,41.9034166667,12.4786944444,1548689873
306004940,Church_of_the_Ges_,campo-marzio-italy,41.8958333333,12.4797222222,1547491866
221555088,SUSHISEN_Vero_Ristorante_Giapponese,san-paolo-italy,41.8750795,12.4793327,1548718560
399980305,Villa_Medici,campo-marzio-italy,41.90827,12.48252,1548696619
1012434033,Pianostrada_Laboratoriodicucina,campo-marzio-italy,41.8902206,12.4682598,1548617995
249913001,Fiume_Tevere,campo-marzio-italy,41.9023019679,12.4715777893,1493338982
1016391193,Lumi_re_Prati_Roma,campo-marzio-italy,41.9065273992,12.4690424469,1548584092
510457,Louis_Vuitton,campo-marzio-italy,41.9053233647,12.4813190103,1548679897
6753512,Mimi_e_Coco,campo-marzio-italy,41.8980714639,12.4713939609,1548009930
234550763,The_Jerry_Thomas_Project_Rome,campo-marzio-italy,41.89796,12.46789,1548705486
434958587,Piazza_Venezia,campo-marzio-italy,41.89639,12.4825,1548702274
68886546,Cinecitt_,cinecitta-italy,41.85,12.566667,1548696739
219508728,Anagnina,cinecitta-italy,41.842778,12.586111,1548610166
151663,Largo_di_Torre_Argentina,campo-marzio-italy,41.895626257,12.4766963797,1547659406
235782827,Venchi,campo-marzio-italy,41.906302072,12.4800922388,1518471743
205960,Via_del_Governo_Vecchio,campo-marzio-italy,41.8984011428,12.4704782202,1548400472
238816044,Palazzo_Chigi,campo-marzio-italy,41.90136944,12.47970278,1548685563
366541,PimmS_Good,campo-marzio-italy,41.89197,12.4684,1548714921
25099600,Coromandel,campo-marzio-italy,41.8996536902,12.4697428303,1548674433
381045702,Piazza_Navona,campo-marzio-italy,41.8988888889,12.4730555556,1548661954
234445181,Museo_Leonardo_da_Vinci_Piazza_del_Popolo,campo-marzio-italy,41.91127,12.47648,1548615909
234300206,Caff_Portofino,campo-marzio-italy,41.908444636,12.466924435,1548621553
226425307,IED_Istituto_Europeo_di_Design,san-paolo-italy,41.8790867477,12.4727360918,1548499106
259071924,City_Dream,torrenova-italy,41.8684480101,12.6047268275,1548668523
268513527,Italy_Rome_,campo-marzio-italy,41.9025914837,12.4827912077,1537547465
382481,Piazza_Mignanelli,campo-marzio-italy,41.905112283,12.4831297377,1548701470
215832172,Vaticano_San_Pietro,campo-marzio-italy,41.8993416583,12.4682902083,1548706545
5993029,Bartolucci_Roma,campo-marzio-italy,41.8998314924,12.4789372087,1548598242
1762804167354812,Palazzo_Altemps,campo-marzio-italy,41.9010380721,12.472997754,1538581255
351985161,Piazza_Navona_Roma,campo-marzio-italy,41.8991579036,12.4731372946,1485457874
323365,Foro_di_Traiano,san-paolo-italy,41.8954204432,12.4848538033,1548710015
220175752,Ponte_Castel_Sant_Angelo,campo-marzio-italy,41.902518161,12.4677098296,1548698039
408934054,Piazza_del_Popolo,campo-marzio-italy,41.910999738,12.475402881,1504742733
218625527,Corte_di_Cassazione_Roma,campo-marzio-italy,41.9029358801,12.4712128518,1548454808
279841,Fontana_dei_Quattro_Fiumi,campo-marzio-italy,41.898953,12.473075,1548639901
282834,Ponte_Sisto,campo-marzio-italy,41.8924219917,12.4708578196,1548701675
1760524,Circolo_Canottieri_Aniene_1892,tor-di-quinto-italy,41.93199,12.48371,1548707737
1854343,Hotel_Valadier,campo-marzio-italy,41.9093,12.47753,1548707742
982946,Bir_Fud,campo-marzio-italy,41.8916916,12.46889895,1548533513
1839699122925938,Chorus_Caf_,campo-marzio-italy,41.90255,12.4636099,1548685278
220696049,Palazzo_Cipolla,campo-marzio-italy,41.8996721725,12.4810061435,1548584139
2285995,Dal_Bolognese,campo-marzio-italy,41.9098038,12.4760316,1548668882
2043610,Museo_di_Roma,campo-marzio-italy,41.8975800526,12.4728269255,1548683751
266721624,Forum_Romain,san-paolo-italy,41.89253,12.48571,1548720225
74883639,Tartufi_Friends_Roma,campo-marzio-italy,41.90452,12.48011,1548546218
504887202,San_Saba,san-paolo-italy,41.879017,12.486293,1548585554
166808020823913,Eden_Roma,tor-di-quinto-italy,41.9340870113,12.4521696146,1548336380
3308797,Da_Francesco,campo-marzio-italy,41.8994000056,12.4704388184,1548543631
309362488,Montesacro_Citta_Giardino,monte-sacro-italy,41.9300226476,12.5398391662,1548702379
1600393813524073,Eternal_City_Tattoo_La_Bottega_degli_Artisti,campo-marzio-italy,41.90549,12.4731,1548719092
274627159716773,Museo_Orto_Botanico_Sapienza_Universit_di_Roma,campo-marzio-italy,41.89211,12.46611,1548608493
608191,Ara_Pacis_Augustae,campo-marzio-italy,41.9055648152,12.4753672797,1548670989
5830393,Meo_Pinelli,cinecitta-italy,41.8537316613,12.5675290406,1548583850
975894079188577,Terrazza_Caffarelli_Caffetteria_dei_Musei_Capitolini,san-paolo-italy,41.8925792,12.4816706,1548692606
669942,Piazza_Della_Rotonda_Roma,campo-marzio-italy,41.8992791382,12.4768150526,1548519765
24186471,The_First_Roma,campo-marzio-italy,41.9087096437,12.4756056517,1548468853
451410,Piazza_Di_Montecitorio,campo-marzio-italy,41.9006490279,12.4786844337,1531570573
1020441758,Officine_ReD,campo-marzio-italy,41.8969803,12.4702702,1548656598
236306935,Il_Pozzo_since_1973,magliana-italy,41.8579,12.44091,1548670155
277472747,Monte_Sacro_Lazio_Italy,monte-sacro-italy,41.9333,12.5333,1548603094
391318844,Terme_di_Caracalla,san-paolo-italy,41.879444,12.493056,1548692582
1007144554,Corviale,magliana-italy,41.8542099,12.4222298,1548704644
555434978181663,Viale_Cortina_D_Ampezzo_Roma,tor-di-quinto-italy,41.946755695,12.44120121,1548705419
222660944774511,Zuma_Palazzo_Fendi,campo-marzio-italy,41.9046776342,12.4786659779,1548592542
220164982,MA_CHE_SIETE_VENUTI_A_FA,campo-marzio-italy,41.8917781594,12.4691281117,1548595758
291641655,EMMA,campo-marzio-italy,41.894805028,12.4751409965,1548681260
4490859,Piazza_Cola_Di_Rienzo_Rome,campo-marzio-italy,41.9086979415,12.4680052813,1548617293
237943252,Basilica_of_Santa_Maria_del_Popolo,campo-marzio-italy,41.911389,12.476389,1548683576
137150873702483,GUS,campo-marzio-italy,41.90542,12.47319,1548708340
224566715,Palazzo_Farnese,campo-marzio-italy,41.89492,12.47099,1548711143
2027892120828222,Campo_de_Fiori,campo-marzio-italy,41.8955869563,12.4721880251,1541189653
537113219,Colosseo_Roma_Italia,magliana-italy,41.8151402037,12.3998503458,1548713485
352581137,Palazzo_Corsini_Rome,campo-marzio-italy,41.8933277778,12.4665861111,1548686679
259719676,Torre_Gaia_Lazio_Italy,torrenova-italy,41.8699847861,12.6265585808,1548692779
510196,Piazza_Augusto_Imperatore,campo-marzio-italy,41.9054464052,12.4767388765,1548684684
168405298,CamilloB_roma,campo-marzio-italy,41.9057503,12.4692802,1548698713
224013148,Coho_Loft,monte-sacro-italy,41.91195,12.55144,1548691548
732773281,Trestevere_Roma,campo-marzio-italy,41.8964073227,12.4649280549,1537293554
909751883,Stadio_Del_Nuoto_Roma,tor-di-quinto-italy,41.9294401738,12.4575884561,1548612725
794020134,Terrazzo_Del_Gianicolo_Roma,campo-marzio-italy,41.8917966456,12.4611639208,1548695920
414038453,MAXXI_Museum_By_Zaha_Hadid,tor-di-quinto-italy,41.9287192841,12.4668429707,1548710160
1133387,Piazza_Euclide,tor-di-quinto-italy,41.9267322204,12.4812628605,1546342092
1021347838,Milvio_Cocktail_Bar,tor-di-quinto-italy,41.93892,12.46937,1548666701
1835113,Stadio_delle_Terme_di_Caracalla,san-paolo-italy,41.8814736782,12.491088224,1544910658
1859148,New_Green_Hill,monte-sacro-italy,41.965004616,12.5461016206,1548612808
307351741,Museo_Canova_Tadolini,campo-marzio-italy,41.907859581,12.4796631028,1548715407
1016104128,Riserva_naturale_Valle_dellAniene,monte-sacro-italy,41.92986667,12.55253889,1548510642
1026084512,Ghetto_de_Roma,san-paolo-italy,41.8926455065,12.4778107164,1548669901
151968682171701,Sheket,campo-marzio-italy,41.894764417,12.4777060747,1548695370
128180701209386,Sublime_Le_Colonial,tor-di-quinto-italy,41.9384242949,12.4729800224,1548714873
235033120,Coliseu,san-paolo-italy,41.89,12.4919444444,1536250186
225152125,Castle_St_Angelo,campo-marzio-italy,41.90263,12.46633,1548698039
381833498,Via_dei_Condotti_Roma_Capitale,campo-marzio-italy,41.9050700055,12.4800997968,1548606049
243051232,Piazza_Venezia_Vittoriano,san-paolo-italy,41.8945280851,12.4816006399,1548607745
455154505,Roma_Nomentana,monte-sacro-italy,41.932566,12.523556,1548676905
338173398,Curva_Sud_ROMA,tor-di-quinto-italy,41.9331586168,12.454836275,1548711397
6159053,Lungotevere_Prati,campo-marzio-italy,41.905055869,12.4734413624,1548717655
229689400,Il_Margutta_vegetarian_food_art,campo-marzio-italy,41.909601374,12.478245492,1548678185
513711695,Queen_Makeda_Grand_Pub,san-paolo-italy,41.8795568611,12.4849972393,1548704829
398916579,Piazza_del_Popolo,campo-marzio-italy,41.9105555556,12.4763888889,1548709814
327069927714674,Piazza_Di_Pietra_In_Roma,campo-marzio-italy,41.89999,12.47951,1548704248
284914760,Antico_Forno_Roscioli,campo-marzio-italy,41.8945999,12.4742599,1548669407
360416,Facolt_di_Ingegneria_Tor_Vergata,torrenova-italy,41.8547076325,12.6239246501,1548664633
242610487,Parco_Degli_Aranci_Aventino,san-paolo-italy,41.8848827459,12.4801629652,1548695831
353998919,St_Angelo_Bridge,campo-marzio-italy,41.90196,12.46645,1548693441
6827648,Stadio_Del_Nuoto,tor-di-quinto-italy,41.9294988747,12.4578088828,1548706947
165931948,Rome,san-paolo-italy,41.8930555556,12.4827777778,1537547465
871668967,Radio_Kaos_Italy,monte-sacro-italy,41.9110184,12.5377398,1548703285
244556887,Lago_di_Bracciano,san-paolo-italy,41.895465,12.482324,1542205719
1958207594468660,Stadio_Olimpico_Roma,tor-di-quinto-italy,41.9344410462,12.45430822,1548685586
249115,Ponte_Umberto_I,campo-marzio-italy,41.9025101731,12.4713999832,1548693479
268744,Teatro_Marcello,san-paolo-italy,41.8925529419,12.4804761991,1548677534
320304944,Isola_del_Cinema,san-paolo-italy,41.8902929883,12.478624727,1548430823
235574136,La_Casa_Del_Caffe_Tazza_dOro_al_Pantheon,campo-marzio-italy,41.89961,12.47739,1548550418
227847007,Pompi_Via_Della_Croce,campo-marzio-italy,41.90644,12.48052,1548685586
659889,Hamasei,campo-marzio-italy,41.90339,12.48255,1548604137
259177279,Victor_Emmanuel_Monument_Rome,san-paolo-italy,41.8954965484,12.4822420188,1548021722
2802728,Palazzo_di_Giustizia_Rome,campo-marzio-italy,41.9031558176,12.4706513285,1540711465
229565685,Dulcamara_Restaurant_bar,tor-di-quinto-italy,41.93773,12.46661,1548698987
3378796,Trattoria_Sora_Lella_Roma,san-paolo-italy,41.8908691,12.4779196,1548716860
239228074,Altar_of_the_Fatherland,san-paolo-italy,41.8952634632,12.4830624093,1548705614
220101411,Basilica_of_SantAgostino_Rome,campo-marzio-italy,41.9008333333,12.4741666667,1548701849
291764703,Arco_di_Travertino,cinecitta-italy,41.865918,12.534714,1548070736
271707448,Porta_del_Popolo,campo-marzio-italy,41.91152778,12.47597222,1548720132
1324848470888219,Le_Asiatique,campo-marzio-italy,41.90363,12.47669,1548713126
250747241,Alfredo_alla_Scrofa_Roma_Italia,campo-marzio-italy,41.9022041202,12.47487524,1548682570
214384516,DAF_Dance_Arts_Faculty,monte-sacro-italy,41.926182852,12.539125758,1548712801
234521484,Riomaggiore_Cinque_Terre,campo-marzio-italy,41.9092932225,12.4779351964,1548707979
1003234905,Piazza_Navona_Roma,campo-marzio-italy,41.8989685922,12.4730670099,1525290577
1198984,Zara_Roma,campo-marzio-italy,41.9017426991,12.4804113326,1540625117
43168053,Ask_Cesmesi_Roma_,campo-marzio-italy,41.9009802558,12.4832292279,1548598701
18435843,Piazza_Spagna,campo-marzio-italy,41.9052288076,12.4827145226,1548678612
733651708,CAIO,tor-di-quinto-italy,41.951240155,12.4617576599,1545594923
403325671,Ponte_Umberto_I,campo-marzio-italy,41.9025,12.471389,1548720943
235383482,Rosso_Eat_Drink_Stay,san-paolo-italy,41.8828801392,12.4868469513,1548661724
407796114,Torre_Maura,torrenova-italy,41.866776,12.596745,1548692397
252109373,Holiday_Inn_Rome_Eur_Parco_dei_Medici,magliana-italy,41.8228633654,12.4121716468,1548699977
255494416,Via_Dei_Coronari_Rome,campo-marzio-italy,41.9005391276,12.4708030214,1548628519
15577470,Campo_Centrale_Foro_Italico,tor-di-quinto-italy,41.9281758394,12.4563752018,1548683822
830309415,Mondofitness_Roma,tor-di-quinto-italy,41.9382,12.47803,1548727136
260889738,Ippodromo_delle_Capannelle,cinecitta-italy,41.8237466053,12.5645940599,1548706253
311471653,Torrenova_Lazio_Italy,torrenova-italy,41.85,12.6167,1548716517
227573455,Piazza_Cavalieri_Di_Malta,san-paolo-italy,41.8829988274,12.4786218335,1548511873
1023831160,SantEustachio_il_Caff_dal_1938,campo-marzio-italy,41.8983681591,12.4754525127,1548670773
104704796,Haus_Garten,tor-di-quinto-italy,41.9179590195,12.469459727,1548533766
217121388305416,Stadio_Olimpico,tor-di-quinto-italy,41.9340556367,12.454557692,1537552414
268985131,SantEustachio,campo-marzio-italy,41.898672,12.475715,1548615284
116683029,Via_Della_Croce,campo-marzio-italy,41.9061896931,12.4794436284,1548609329
265169300,Cinecitt_si_Mostra_Shows_Off,cinecitta-italy,41.8503294088,12.5756680049,1548610026
1269501186512936,Malec_n_Roma,torrenova-italy,41.83214,12.61652,1548619941
725998988,Foro_Romano,san-paolo-italy,41.8922,12.4852,1548684139
993662731,Pineta_Sacchetti,tor-di-quinto-italy,41.92981,12.42747,1548522044
8322418,Convitto_Nazionale_Vittorio_Emanuele_2_,tor-di-quinto-italy,41.92001169,12.4682780833,1548683460
229565592,Stadio_Olimpico_Roma,tor-di-quinto-italy,41.9338616,12.4537852837,1537376012
225310140,Ristorante_Angelina_a_Trevi,campo-marzio-italy,41.9024822,12.4827721,1534959063
978480535,Via_Del_Corso_,campo-marzio-italy,41.90702,12.47789,1511334198
366729174,Stazione_di_Roma_Nomentana,monte-sacro-italy,41.9326,12.5236,1548590840
331959213560438,Millennium_Stadium_Cardiff,campo-marzio-italy,41.9047,12.47884,1504173670
271054791,Etabl_Food_Drinks,campo-marzio-italy,41.8996709449,12.4705700709,1548681262
228076670,Abbey_Theatre_Irish_Pub_Rome,campo-marzio-italy,41.89835,12.47044,1548481914
287339042,Coliseo_Romano,san-paolo-italy,41.8917,12.48439,1474939590
284950364,Metro_Roma,campo-marzio-italy,41.9083625,12.46792131,1548630869
1029681497,Orange_Futbolclub_,tor-di-quinto-italy,41.9348698317,12.4759311237,1548713031
249720052,Senate_of_the_Republic,campo-marzio-italy,41.899205073,12.474157072,1548699179
258958296,Hotel_Atlante_Star,campo-marzio-italy,41.9048919687,12.4618840566,1548703665
1112693475441226,Disney_Store,campo-marzio-italy,41.9033306333,12.4795259185,1548652188
22783672,La_Veranda,campo-marzio-italy,41.9017626027,12.4609539762,1525890660
970316036400649,Guerra_Capitalismo_e_Libert_Banksy,campo-marzio-italy,41.8997862703,12.4809960555,1475529295
18207671,Teatro_Sala_Umberto,campo-marzio-italy,41.9031075872,12.4818740032,1548676654
214550383,Teatro_Argentina,campo-marzio-italy,41.89558333,12.47616667,1548700348
223844933,Forum_Romanum_Rome,san-paolo-italy,41.8878041934,12.4897170925,1548684139
241430140,Ponte_Regina_Margherita,campo-marzio-italy,41.909703,12.472433,1548699695
853013981,Giardinetti,torrenova-italy,41.864275,12.610113,1548708129
247632856,Plaza_de_Espa_a_Roma_,campo-marzio-italy,41.90595,12.48205833,1475000140
253605338,Trinita_dei_Monti_Piazza_di_Spagna,campo-marzio-italy,41.9046216063,12.4788183832,1548590875
301955482,Column_of_Marcus_Aurelius,campo-marzio-italy,41.900833,12.479861,1548706614
308911045,Canova_Piazza_del_Popolo,campo-marzio-italy,41.9102973141,12.4767782122,1548693313
5419030,Hotel_dInghilterra_Roma_Starhotels_Collezione,campo-marzio-italy,41.9046321475,12.4803394776,1548662930
9070415,Palazzo_Montecitorio,campo-marzio-italy,41.9010759631,12.4788685778,1548717733
728893457,Cinecitt_Studios_Rome,cinecitta-italy,41.8497242174,12.5742606226,1548675153
317470840,Concerto_Vasco_Stadio_Olimpico,tor-di-quinto-italy,41.9337770966,12.4541120614,1537883213
219789881,Centro_Commerciale_Tor_Vergata,torrenova-italy,41.8407861102,12.6216239991,1548683913
235061161,Roma_Lungotevere,campo-marzio-italy,41.9150602641,12.4693970344,1542029307
236436237,enoteca_CUL_DE_SAC,campo-marzio-italy,41.8978551597,12.4722164523,1548633666
533128,Piazza_Colonna,campo-marzio-italy,41.9009918751,12.4801244181,1539353584
230856170927032,Parco_degli_Acquedotti,cinecitta-italy,41.8525531,12.5580399,1548713956
241338493,Villa_Glori,tor-di-quinto-italy,41.9287963693,12.4805337043,1548693143
159778393,Trastevere_App,campo-marzio-italy,41.89212,12.46893,1548677974
249766635,Rome_Piazza_Navona,campo-marzio-italy,41.9010389964,12.4758013325,1485457874
380839300,Via_del_Corso_Rome,campo-marzio-italy,41.9060277778,12.4782722222,1491733510
512073392503219,Spanish_Steps,campo-marzio-italy,41.905855174,12.4818588012,1548678612
236454040,Palazzo_Madama,campo-marzio-italy,41.8991916667,12.4742777778,1548705344
863657376,Villa_Stuart,tor-di-quinto-italy,41.9276761289,12.4504839547,1548685557
234454913,PORTO_Fish_Chips,campo-marzio-italy,41.9058193942,12.463421899,1548713176
515944269,Teatro_Quirino,campo-marzio-italy,41.8998901109,12.4825165661,1548661222
251183344,Coin_Excelsior,campo-marzio-italy,41.9078712,12.4647799,1548692740
252772003,Tor_Di_Quinto_Lazio_Italy,tor-di-quinto-italy,41.946083625,12.4842090049,1548696443
1034670620,Stadio_Olimpico_Roma,tor-di-quinto-italy,41.93461838,12.4537533,1467465606
219987426,Ristorante_Il_Pagliaccio,campo-marzio-italy,41.89774,12.46756,1548668527
1024904434,Roscioli_Caff_,campo-marzio-italy,41.8941921567,12.4745942912,1548692749
5087531,Via_dei_Giubbonari,campo-marzio-italy,41.8945113257,12.4736609707,1548701586
1830227,Lungotevere_Dei_Mellini,campo-marzio-italy,41.9058914927,12.4735950177,1548700876
522292274796850,Fontana_delle_Tartarughe,campo-marzio-italy,41.8938077032,12.4774750025,1548699133
5919549,Vanni,tor-di-quinto-italy,41.9173635049,12.4644237757,1548540147
1752207195045596,Campidoglio,san-paolo-italy,41.8937564785,12.4819776556,1536352577
236959436,Grand_Hotel_de_la_Minerve,campo-marzio-italy,41.8976457,12.4774837,1548683646
247532500,Fiera_Di_Roma_Romics,monte-sacro-italy,41.9360856275,12.5152949361,1523254354
288911336,Tor_Vergata_Roma,torrenova-italy,41.85005,12.62533,1548595597
1896765907208815,SantaNera,tor-di-quinto-italy,41.9538572741,12.4749541283,1547748224
461529767,Caff_Vitti,campo-marzio-italy,41.903715995,12.478170575,1548612640
142825,Barnum_caf_,campo-marzio-italy,41.89709,12.46996,1548670493
1012902918,Le_Carr_Fran_ais_Roma,campo-marzio-italy,41.9050178375,12.4719207125,1548711147
264950269,Gardagolf_Country_Club,cinecitta-italy,41.84833333,12.53861111,1547292843
233248112,Ristorante_Life,campo-marzio-italy,41.90363,12.48068,1548715499
542720497,Piazza_Navona_Rome_Italy,campo-marzio-italy,41.8988949383,12.4729633867,1468449837
245756044,Stadio_dei_Marmi_Foro_Italico_Roma,tor-di-quinto-italy,41.9338080545,12.4582193785,1548708617
697118095,Centro_Sperimentale_di_Cinematografia,torrenova-italy,41.82845,12.62184,1548699567
271715637,Centro_Federale_Pietralata_FIN,monte-sacro-italy,41.9221987295,12.5371784523,1548605923
255750037,Quartiere_Garbatella_Roma,campo-marzio-italy,41.9035606,12.4765301,1541091262
1020515992,Studio_27,torrenova-italy,41.8591652,12.6207666,1548269811
2158209,Ducati_Caff_Roma,campo-marzio-italy,41.8950191129,12.4775322773,1548275346
566261230,100_Montaditos_Roma_Ponte_Milvio,tor-di-quinto-italy,41.9370846445,12.4657068798,1548612855
439203513,Santi_Apostoli_Rome,campo-marzio-italy,41.8979985903,12.4831276847,1548683644
99152459,Settembrini,campo-marzio-italy,41.91508773,12.466464712,1548597306
1012262372,Les_Etoiles_Restaurant,campo-marzio-italy,41.9048458938,12.4618605613,1548154148
252053018,Castel_Gandolfo_Lago_Albano,torrenova-italy,41.8738245,12.6067977,1548683563
708840288,Collosium,magliana-italy,41.8228902425,12.4120463563,1548579974
476957,Santa_Maria_in_Vallicella_Chiesa_Nuova_,campo-marzio-italy,41.8981208976,12.4690459326,1527800775
253015847,Pincian_Hill,campo-marzio-italy,41.911763,12.479653,1548700847
353265,THE_DRUNKEN_SHIP_OFFICIAL,campo-marzio-italy,41.8957958801,12.4718117872,1548565570
1026388689,Via_del_Porcodio,magliana-italy,41.852819985,12.437222615,1548702710
240113494,San_Marcello_al_Corso,campo-marzio-italy,41.8986805556,12.4817611111,1548522040
256936568114846,Belle_Ponte_Milvio,tor-di-quinto-italy,41.9386499,12.468558,1548623015
182828,Pizzeria_da_Baffetto,campo-marzio-italy,41.8983691447,12.4703549748,1548702222
287702953,Il_Centrale_Live_Foro_Italico,tor-di-quinto-italy,41.9282229249,12.4563065568,1530889451
323436,Galleria_Alberto_Sordi,campo-marzio-italy,41.9010893655,12.4809354396,1548713915
61924,Open_Baladin,campo-marzio-italy,41.8936500638,12.4745111599,1548689026
53546692,Caligula_Tattoo_Studio,cinecitta-italy,41.8574346182,12.5596509818,1548703353
287181135,Jewish_Quarter_Rome,campo-marzio-italy,41.8930987431,12.4770067289,1548697486
283256726,Piazza_di_Spagna_Suites,campo-marzio-italy,41.90632,12.48138,1546632067
536020420070418,Piazza_di_Spagna,campo-marzio-italy,41.9059013302,12.482239659,1548678612
2700972,Ristorante_LArcano_Roma,campo-marzio-italy,41.89958,12.47837,1548461401
1032337566,Lisola_Che_Non_Ce,campo-marzio-italy,41.90574,12.46406,1548706793
5438343,Roscioli,campo-marzio-italy,41.89428,12.47425,1548715892
246102542586471,Scalinata_Di_Trinit_Dei_Monti_Roma,campo-marzio-italy,41.9058395948,12.4824937584,1548719002
250513446,Villa_York_S_C,magliana-italy,41.8634964229,12.4315547967,1548701103
1017332015,DOM_Hotel_Roma,campo-marzio-italy,41.8974113,12.4671297,1548628524
288909362,Fontana_Di_Trevi,tor-di-quinto-italy,41.9237546066,12.4787768073,1548717090
662337,The_Perfect_Bun,campo-marzio-italy,41.8968446741,12.4745168745,1546017549
1430675640356678,Piazza_di_Spagna,campo-marzio-italy,41.9060048771,12.4820834208,1548716366
237226318,Palazzetto_dello_sport,tor-di-quinto-italy,41.9296222222,12.4707166667,1505209050
250036012,Casette_di_Campagna,magliana-italy,41.862012113,12.4328164174,1548543448
113250460,Panificio_Nazzareno,tor-di-quinto-italy,41.9375260697,12.4666829991,1548535891
227965071,CHANEL_Boutique_in_Roma,campo-marzio-italy,41.9060892236,12.4816418382,1548589093
302824882,Casale_Consolini,cinecitta-italy,41.8423027867,12.5727954173,1548593469
1499162673498740,Love_Bar_Natural_Food,tor-di-quinto-italy,41.9379601,12.4678513,1548716038
279134412440562,Stadio_Olimpico_Roma_Vasco_Rossi_Livekom16,tor-di-quinto-italy,41.9340130116,12.4542592737,1471686556
509291,La_Rinascente_Roma,campo-marzio-italy,41.9012363114,12.4806847394,1548702017
225185393,University_of_Rome_Tor_Vergata,torrenova-italy,41.85361111,12.60333333,1481270241
238589582,Quartiere_Ebraico_Roma,campo-marzio-italy,41.8931509045,12.4771538093,1548666558
2884774,Villa_Laetitia,campo-marzio-italy,41.91631,12.4694,1548699608
243108627,Villanova_di_Guidonia,campo-marzio-italy,41.89178,12.46739,1547743295
1129380797193052,Via_Del_Corso,campo-marzio-italy,41.906700215,12.4782190583,1547887127
246568316,Pante_n_de_Agripa,campo-marzio-italy,41.8993378997,12.4770197668,1529076994
397675710,Stadio_dei_Marmi,tor-di-quinto-italy,41.933699,12.457874,1548708617
253660351,Rimessa_Roscioli,campo-marzio-italy,41.8927418668,12.4729371071,1548726715
634436973612597,Torre_Argentina_cat_Sanctuary,campo-marzio-italy,41.8953296581,12.4767846771,1548704014
242164821,Spagna_Rome_Metro_,campo-marzio-italy,41.905986,12.482427,1548697984
370532353,Piazza_del_Popolo,campo-marzio-italy,41.9105555556,12.4763888889,1548687404
253717135,Palazzo_Altemps,campo-marzio-italy,41.9010400827,12.4729187664,1548700263
335130616,Polo_Museale_del_Lazio_Palazzo_Venezia,campo-marzio-italy,41.89575,12.48135,1548731309
279239131,Piazza_del_Colosseo,campo-marzio-italy,41.9108033167,12.47812985,1548718660
228038183,Chez_Coc_Roma,tor-di-quinto-italy,41.9296095495,12.485325071,1548704714
140035,Piazza_del_Parlamento,campo-marzio-italy,41.902397248,12.4783090404,1531406185
252727371,Villa_Brasini_489,tor-di-quinto-italy,41.9386233365,12.4683925427,1548618976
252164475,Giulio_Agricola,cinecitta-italy,41.8559289723,12.561067352,1548548358
15993330,Osteria_Da_Fortunata_Campo_D_Fiori,campo-marzio-italy,41.8961447431,12.4717674818,1548671482
262441797,La_Fraschetta_di_Castel_SantAngelo,campo-marzio-italy,41.9000497588,12.466562124,1548414099
269054693623131,The_space_parco_dei_Medici,magliana-italy,41.8151594015,12.4116979529,1548691040
457477229,_,campo-marzio-italy,41.8988888889,12.4730555556,1548407541
886028594,Via_Flaminia_448_B_Ch_c_Showroom,tor-di-quinto-italy,41.9375494,12.4667425,1532022786
244317434,Salesian_Pontifical_University,monte-sacro-italy,41.96039,12.520818,1548708660
526150097,Babalus_Babalusino,cinecitta-italy,41.85474,12.56573,1546978572
236165729,Il_Piccolo_Diavolo_Bar,campo-marzio-italy,41.90855,12.46735,1548529018
190363,Sant_Eustachio_Il_Caff_,campo-marzio-italy,41.89827,12.47519,1548670773
283296692014019,Le_M_ridien_Visconti_Rome,campo-marzio-italy,41.9075800575,12.4710272185,1548712518
240872822,Hi_Res,campo-marzio-italy,41.9093,12.47753,1548631462
235013920,Torre_Argentina_Cat_Sanctuary,campo-marzio-italy,41.89227616,12.47031301,1547659406
1754343,Hotel_Indigo_Rome_St_George,campo-marzio-italy,41.89821,12.466178,1548567162
388608143,Taki_Ristorante_Giapponese,campo-marzio-italy,41.9058757142,12.4710685336,1548706553
1989169927986620,CONI_Acqua_Acetosa_Roma,tor-di-quinto-italy,41.9364277167,12.4915499714,1548705837
1027765323978088,MACRO_Testaccio,monte-sacro-italy,41.8761891162,12.4731565477,1548528661
355251545,Piazza_Venezia_Roma,campo-marzio-italy,41.8951821,12.4808971,1548607745
344443936,Numidio_Quadrato,cinecitta-italy,41.86352,12.54959,1548688203
239282264,Universit_Torvergata_Medicina_e_Chirurgia,torrenova-italy,41.8566496238,12.632766555,1548692030
3375339,Disney_Store_Via_del_Corso_Roma,campo-marzio-italy,41.90338,12.47945,1548412180
553559994833863,Love_Chiostro_del_Bramante,campo-marzio-italy,41.900051927,12.4715400048,1548706892
825127,Giolitti,campo-marzio-italy,41.9011546927,12.4772137241,1548727320
758945858,Torre_Angela_metropolitana_di_Roma_,torrenova-italy,41.864318,12.625711,1548706238
840845,Palazzo_Venezia,campo-marzio-italy,41.8961303422,12.4825007269,1548673829
1893933970705915,PratiBus_District,tor-di-quinto-italy,41.91945,12.45886,1548719318
237496653,Ials_Roma,tor-di-quinto-italy,41.9233381316,12.4689754145,1548619490
266068439,Roma_Phanteon,campo-marzio-italy,41.8991432,12.4768247,1537561810
308769625,Spanische_Treppe_Rom,campo-marzio-italy,41.9058716533,12.4823209867,1548713136
367982608,Via_del_Corso_Roma,campo-marzio-italy,41.906700215,12.4782190583,1545217633
235707443,Villa_Medici_Accademia_Di_Francia,campo-marzio-italy,41.908322498,12.4825633415,1548696619
1437070183255806,RETROBOTTEGA,campo-marzio-italy,41.90167,12.47525,1548716183
221226227,Puente_SantAngelo,campo-marzio-italy,41.9015851666,12.4665164871,1548693849
409020750,MONS,campo-marzio-italy,41.8993256563,12.470566205,1548620886
2617328,Piazza_dei_Quiriti,campo-marzio-italy,41.90923611,12.4645,1548710103
348281361,Vatican_Museum,campo-marzio-italy,41.90432,12.48098,1548700890
1001875396,Monte_Mario_Observatory,tor-di-quinto-italy,41.9225,12.4525,1548708514
432217,Via_Margutta_Roma,campo-marzio-italy,41.9081582155,12.4801514053,1548716347
16939355,Parco_di_Tor_Fiscale,cinecitta-italy,41.859420838,12.5446060084,1547749214
266842732,Surplustore,tor-di-quinto-italy,41.94362,12.47264,1548164091
281474869,Magnum_Pleasure_Store_Roma,campo-marzio-italy,41.9047221672,12.4780407554,1548433085
313198486,Centro_Commerciale_LE_TORRI,torrenova-italy,41.8681593412,12.6317948419,1548669421
270136872,Cacio_e_pepe,campo-marzio-italy,41.91534,12.46676,1548683096
271011819930956,Palazzo_Cipolla_Mostra_Banksy,campo-marzio-italy,41.90702,12.47789,1548584139
313275871,Via_del_Pellegrino,campo-marzio-italy,41.89709,12.47001,1548595677
9246553,Via_Dei_Monti_Parioli,tor-di-quinto-italy,41.9226557843,12.4782030349,1548620189
677091753,Parco_Viale_Tor_Di_Quinto,tor-di-quinto-italy,41.9367553877,12.4815456448,1548588788
215113698,Piazza_Novona,campo-marzio-italy,41.9073595293,12.4780481402,1490466344
330596522,SBU_Strategic_Business_Unit,campo-marzio-italy,41.89762,12.47226,1548683402
235654772,Roma_via_dei_Coronari,campo-marzio-italy,41.9005913141,12.4689321832,1548628519
265628142,Glamorous_Rome,campo-marzio-italy,41.9085813566,12.4765673091,1511628042
2771494,Casa_Internazionale_delle_Donne,campo-marzio-italy,41.8945906463,12.46572498,1548697305
275431811,Galleria_Sciarra,campo-marzio-italy,41.89956,12.48217,1544360429
345020078,Lucio_Sestio,cinecitta-italy,41.8599,12.5571,1548365758
377221863,Piazza_Navona,campo-marzio-italy,41.8985345196,12.4730827015,1474940382
1140864862656250,Piazza_del_Popolo_Roma,campo-marzio-italy,41.91097,12.4756699,1493140597
841975,Zen_Sushi_Roma,campo-marzio-italy,41.9105845817,12.4659827109,1548655409
1020041462,Per_Me_Giulio_Terrinoni,campo-marzio-italy,41.89731,12.4674,1548705177
302998264,Castillo_SantAngelo,campo-marzio-italy,41.903064,12.466355,1548698039
224657838,Giardinetti_Roma,torrenova-italy,41.86218,12.60423,1535020932
1177152395669220,Eitch_Borromini,campo-marzio-italy,41.899146722,12.4727654457,1548703594
536874890,Stadio_Olimpico,tor-di-quinto-italy,41.933872,12.454714,1538061931
1423622180981270,Roma_Store_Via_Del_Corso,campo-marzio-italy,41.9086644533,12.4772016867,1548669818
304423746,Centro_Commerciale_Casetta_Mattei,magliana-italy,41.8529397767,12.4170770895,1548708900
394947122,Holypopstore,campo-marzio-italy,41.9085795829,12.4749193643,1548616052
629818224,Sartoria_Scavelli,campo-marzio-italy,41.8979799,12.47023,1548672732
674357157,G_Rough,campo-marzio-italy,41.8975573995,12.4721677782,1548603329
5673318,Piazza_Benedetto_Cairoli,campo-marzio-italy,41.8937356372,12.4751961189,1548604352
41862658,Piazza_Borghese,campo-marzio-italy,41.90369,12.47586,1548614983
980852641,Discoteca_Akab,magliana-italy,41.8457187459,12.4292437121,1548673652
247584215,Ristorante_Assunta_Madre,campo-marzio-italy,41.8953543567,12.4685014019,1548629035
444785204,Giulio_Passami_lOlio,campo-marzio-italy,41.89973,12.46825,1546900098
241966787,Keats_Shelley_House_Rome,campo-marzio-italy,41.90575,12.48243,1548706377
2188479634499107,Sant_Eustachio_Il_Caff_,campo-marzio-italy,41.89849,12.47526,1548670773
412979895,Ballando_con_Le_Stelle,tor-di-quinto-italy,41.9319000662,12.4573127754,1533900841
221745868,Parco_Dell_Acquedotto_Roma,cinecitta-italy,41.85349,12.55779,1536010967
410485,Bar_della_Pace,campo-marzio-italy,41.89954,12.47128,1531943452
507119154,Gusto_Ristorante_Pizzeria_Wine_Bar,campo-marzio-italy,41.90666,12.47608,1523035245
159824907834298,Tyler_Ponte_Milvio,tor-di-quinto-italy,41.93892,12.46937,1548720972
8017408,Liceo_Classico_Virgilio,campo-marzio-italy,41.896687078,12.467674613,1548688343
217173977,Fountain_Of_Four_Rivers_Rome_Italy,campo-marzio-italy,41.899243011,12.4730192593,1548639901
292107200,True_Love_Shop,monte-sacro-italy,41.9522199,12.51482,1548706725
245675707,Museo_Hendrik_Christian_Andersen,campo-marzio-italy,41.9141579,12.4727535,1548713758
255440463,Parco_dei_Fumetti,magliana-italy,41.8018303536,12.4259782188,1531081180
380733300,Ponte_Milvio_Roma,tor-di-quinto-italy,41.9373081348,12.4662579784,1548685656
739418240,Studi_Cinematografici_De_Paolis,monte-sacro-italy,41.9093461492,12.54083569,1521466658
125977508083888,Museo_Centrale_Del_Risorgimento,san-paolo-italy,41.8944341454,12.4839342938,1548699592
12027316,Cybo,campo-marzio-italy,41.8992517926,12.4717171842,1548712462
406112228,Auditorium_Taste_Of_Rome,tor-di-quinto-italy,41.9288842143,12.4755993236,1545010554
239347807,Lanificio_Cucina,monte-sacro-italy,41.9263961108,12.5385546684,1548722874
431354606,SiCantaforte_Roma,tor-di-quinto-italy,41.9518347,12.46256,1548525140
25600993,Rai_Teatro_Delle_Vittorie,tor-di-quinto-italy,41.91757,12.46366,1506542877
3631979,Parco_Meda,monte-sacro-italy,41.9127088403,12.5451393278,1548154613
1022489713,Questo_il_Romics,tor-di-quinto-italy,41.89793,12.67995,1548698879
214622130,San_Carlo_al_Corso,campo-marzio-italy,41.9052353,12.4784567,1548689439
275070935,_,campo-marzio-italy,41.89639,12.4825,1548664071
213044335,I_Liceo_Artistico_Via_Ripetta,campo-marzio-italy,41.907015638,12.4756948714,1548526348
224890494,Lindt_Store,campo-marzio-italy,41.9002759875,12.4764243188,1546769548
258582197,Louis_Vuitton,campo-marzio-italy,41.9038492,12.4788223,1548614054
487448317,Fontana_Di_Trevi,magliana-italy,41.8150911842,12.3998020989,1548693150
348312083,Trastevere_Piazza_Trilussa,campo-marzio-italy,41.8917721917,12.4699827111,1548716838
236623848,Teatro_Riccardi,campo-marzio-italy,41.89539,12.47884,1538122728
234410628,Gianicolo_Piazza_Garibaldi,campo-marzio-italy,41.891790715,12.4609522077,1548076648
415127822,Flaminio_Sporting_Club,tor-di-quinto-italy,41.9551006513,12.4883299462,1548697288
246698511,Piazza_Mattei,campo-marzio-italy,41.89381,12.47767,1539418254
279063726,Portrait_Roma,campo-marzio-italy,41.90533212,12.4803181942,1548410283
273632929,Mykonos_Greece,tor-di-quinto-italy,41.9264672351,12.4279923416,1548723052
258565183,Teatro_Quirino_Vittorio_Gassman,campo-marzio-italy,41.8998901109,12.4825165661,1548661222
363047320,Ostuni_Puglia,torrenova-italy,41.8489841,12.5963240024,1539637473
194650,Hotel_Residenza_di_Ripetta_in_Rome,campo-marzio-italy,41.9084476625,12.4758144429,1548705004
224137539,Pompi_Piazza_di_Spagna,campo-marzio-italy,41.9063650184,12.4805708732,1548685586
178045139462804,Suprema_Corte_di_Cassazione,campo-marzio-italy,41.9039878584,12.470587201,1548454808
388341381524323,SantoPalato_Roma,san-paolo-italy,41.88127,12.5099,1548630983
614597,Parco_Di_Roma_Golf_Country_Club,tor-di-quinto-italy,41.9656170257,12.4730443954,1548505388
371370050,Castel_SantAngelo,campo-marzio-italy,41.903064,12.466355,1548698039
442786971,Zoobar_Roma,monte-sacro-italy,41.9326694256,12.52946742,1548690084
7618556,La_Carbonara,campo-marzio-italy,41.8957658598,12.4718531386,1547363217
2756465,Internazionali_BNL_DItalia,tor-di-quinto-italy,41.9289126194,12.4565907924,1495279570
285795453,Ponte_Sisto_Trastevere,campo-marzio-italy,41.8949477775,12.4772415325,1548727389
551550883,Colonna_City_of_Rome,campo-marzio-italy,41.9022222222,12.4777777778,1548710320
264513758,Lago_di_Castel_Gandolfo,torrenova-italy,41.8494559,12.5964661421,1548683563
13618279,La_Botticella_Rome,campo-marzio-italy,41.89919,12.47151,1548594325
166218100624160,Bamboo_Fitness,magliana-italy,41.8471075,12.4340392,1548709123
299267178,Bartorelli_Hair_Couture,campo-marzio-italy,41.909131,12.474236,1548485181
13624606,Sciam,campo-marzio-italy,41.8966352454,12.4710185694,1548640993
1028743264,Via_Margutta_Roma_Italia,campo-marzio-italy,41.9086376147,12.4796601117,1548716347
696227280,Piazza_Navona,campo-marzio-italy,41.8988888889,12.4730555556,1548660673
13678093,Buddha_Smile,torrenova-italy,41.83663,12.63333,1548706687
1015372242,Hosteria_Del_Mercato_1870,campo-marzio-italy,41.906663815,12.479835077,1548714400
1015800906,Palatorrino,magliana-italy,41.8096809,12.4287596,1548716254
129773184,Curva_Nord_Gabriele_Sandri,tor-di-quinto-italy,41.9347929003,12.4544984948,1547455169
263822378,Zona_La_Romanina,torrenova-italy,41.8490293,12.6040387061,1548707539
288544815005649,Bakery_House,tor-di-quinto-italy,41.93884,12.46905,1548675286
304489484,Pigna,campo-marzio-italy,41.9,12.48333333,1548709216
275026229,Campo_Centrale_Internazionali_BNL_di_tennis,tor-di-quinto-italy,41.9281774636,12.4564014069,1495287632
1028264908,The_Fisherman_Burger,campo-marzio-italy,41.90039,12.46489,1548627139
245608340,Golf_Club_Parco_De_Medici,magliana-italy,41.8147297231,12.40975654,1548621360
389134291,Auditorium_Rai,tor-di-quinto-italy,41.931825618,12.4573695145,1547992212
235119068,Ristorante_AllOro_Roma,campo-marzio-italy,41.91377,12.47308,1548723073
247964673,Campidoglio,san-paolo-italy,41.8933333333,12.4830555556,1548624405
221708724587280,Olimpic_Stadium_Rome_Asroma,tor-di-quinto-italy,41.9339983688,12.454855744,1548726584
1199975,Sora_Margherita,campo-marzio-italy,41.8928363126,12.4765414192,1548449821
260123739,Via_Dei_Condotti_Piazza_Di_Spagna,campo-marzio-italy,41.905662752,12.4808203477,1548728159
557733008,Ghetto_di_Roma,san-paolo-italy,41.8924,12.4775,1548733397
218767708,Osteria_Da_Zi_Umberto,campo-marzio-italy,41.891972381,12.4689375036,1548081214
15592625,Hostaria_Da_Pietro_Roma_,campo-marzio-italy,41.9083919729,12.4781319497,1548703880
565961897,Palestre_Passion_Fitness,cinecitta-italy,41.85879,12.56138,1548695175
988245498,MYZAR_Concept_Store,campo-marzio-italy,41.8989792,12.4656,1545473365
264605536,Rome_Roma_,san-paolo-italy,41.893429797,12.48205735,1545494447
222657735,Numbs_Restaurant,campo-marzio-italy,41.9058113,12.4810104,1548624156
1757782811182240,Virgin_Active_EUR,magliana-italy,41.8135658852,12.4359300378,1548668440
2231918,Meloncini,tor-di-quinto-italy,41.9388177758,12.4774396108,1548666305
311326642,Pista_Ciclabile_Montemario,tor-di-quinto-italy,41.932310659,12.4229836114,1548105390
641129902,CHARRO_CAF_,san-paolo-italy,41.8757953406,12.4763361075,1548595901
751349665,Ristorante_Riso,san-paolo-italy,41.8803602031,12.4775715085,1548446731
15480931,Biblioteca_Angelica,campo-marzio-italy,41.90077,12.47444,1548698879
1848177445507615,Fingers_Roma,campo-marzio-italy,41.9122696,12.4740791714,1548613588
402139894,Buddy_Italian_Restaurant_Caf_,campo-marzio-italy,41.89659,12.47467,1548233388
242942264,Fontana_di_Piazza_Colonna,campo-marzio-italy,41.90083333,12.48027778,1548695322
297735800,Armando_al_Pantheon,campo-marzio-italy,41.899059222,12.4762469677,1548593542
235592426,Chiesa_di_SantIgnazio_di_Loyola_in_Campo_Marzio,campo-marzio-italy,41.899,12.4797777778,1548671962
1022973991,Retrobottega,campo-marzio-italy,41.90167,12.47525,1547499513
1746478362230501,Roma_Italy_Altar_of_the_Fatherland,campo-marzio-italy,3.03333,101.45,1548712392
475789955,Piazza_Navona,campo-marzio-italy,41.8988888889,12.4730555556,1548673869
442565795,Facolt_di_Ingegneria_Universit_degli_Studi_di_Roma_Tor_Vergata,torrenova-italy,41.854526226,12.623965034,1548518827
1652324858425421,Giardini_Di_Palazzo_Venezia,campo-marzio-italy,41.8959737685,12.4810263168,1548673829
2548361,Tribunale_Civile_di_Roma,campo-marzio-italy,41.9115304852,12.4652411607,1548329229
1019008,Lungotevere_Michelangelo,campo-marzio-italy,41.9120789133,12.4707757695,1548406698
2004513602922542,Chiesa_del_Ges_Roma_Italy,campo-marzio-italy,41.8957982444,12.4796490567,1548690798
462173695,Torraccia,torrenova-italy,41.874985,12.6171146,1548525954
22180902,Via_Borgognona,campo-marzio-italy,41.90487,12.48134,1489342107
241985130,Il_Palazzetto_Roma,campo-marzio-italy,41.9063015748,12.4828633257,1548686800
235396189,Monte_Delle_Capre,magliana-italy,41.8449397349,12.4293580073,1548620724
10764941,Via_Sacra,san-paolo-italy,41.8913542512,12.4879323921,1548662824
237364073,Acquolina_Ristorante,campo-marzio-italy,41.908709093,12.475592201,1548703874
265230332,Lush_Roma_Corso,campo-marzio-italy,41.9089421789,12.4773282924,1548695108
349938543,Roma_Spanish_Steps,campo-marzio-italy,41.9058758739,12.4824161998,1548678612
1195276820565235,Monteverde_Club,magliana-italy,41.8521630638,12.4437068307,1548678712
495798037293174,Coca_cola_Summer_Festival_Piazza_del_Popolo,campo-marzio-italy,41.9106433078,12.4764522313,1467511661
239579556,Cimitero_acattolico_di_Roma,san-paolo-italy,41.876595097,12.4799378247,1548718424
219479908,Colloseum_Rome_Italy,campo-marzio-italy,41.903948805,12.480441417,1548020255
248192220,Portaportese,san-paolo-italy,41.8828162314,12.4757137261,1548684038
17604539,Circolo_Montecitorio,tor-di-quinto-italy,41.9334663675,12.4881967551,1548609789
243684899,Basilica_of_Saints_John_and_Paul_on_the_Caelian_Hill,san-paolo-italy,41.8863888889,12.4922222222,1548703038
251040316,MAXXI_Roma,tor-di-quinto-italy,41.9285277667,12.4664263872,1548710160
463793521,ARGOT,campo-marzio-italy,41.8964097,12.4706686,1548703471
4103528,St_Johns_University_Rome_Campus,campo-marzio-italy,41.9104372972,12.4671540796,1548495969
218901777,Trastevere_Piazza_Trilussa,campo-marzio-italy,41.8917335287,12.4700717271,1548703877
256031240,Ghetto_Ebraico_Portico_dOttavia_,campo-marzio-italy,41.8932172482,12.4771058124,1548666558
5346990,Grom,campo-marzio-italy,41.9011478536,12.4765954372,1548585206
234332659,Spaghetteria_lArchetto,campo-marzio-italy,41.8993441,12.4827716,1548622743
7544366,Ad_Hoc,campo-marzio-italy,41.90811,12.47597,1548709208
250808109,Villa_Borghese_Roma,campo-marzio-italy,41.906865961,12.4826054648,1548711226
292885707714559,Fontana_Di_Trevi,campo-marzio-italy,41.9125194,12.47623231,1470680255
236621888,Inofficina,monte-sacro-italy,41.92555,12.53549,1548617823
3247180,Trattoria_Da_Luigi,campo-marzio-italy,41.8983628281,12.4678686359,1548634678
851572440,Castelo_Snt_Angelo,campo-marzio-italy,41.903112722,12.4659642,1548698039
718691231,VINO_e_FOCACCIA_Cocktail_Wine_Bar,campo-marzio-italy,41.9084690798,12.4669787475,1547929470
866374710053226,Wisdomless_Club,campo-marzio-italy,41.89789,12.47024,1548508285
240028322,Roma_Citta_Eterna,campo-marzio-italy,41.9108458371,12.4787309919,1548676703
468940984,Club_Derri_re,campo-marzio-italy,41.90114,12.4762,1548613578
279984462,Er_Serpentone_corviale_,magliana-italy,41.8514676824,12.4123722979,1548704644
497417117,Santa_Lucia_Rome_Restaurant,campo-marzio-italy,41.900045888,12.4722376647,1548696523
220538674,Hotel_Cicerone_Roma,campo-marzio-italy,41.9076819848,12.4686309091,1548680350
552795549,Baccanale_Campo_de_Fiori_Roma,campo-marzio-italy,41.89588,12.47213,1548613532
276456369,Piazza_Bologna_Roma,campo-marzio-italy,41.9092722638,12.4636781371,1548609938
528441663,Colosseo_metropolitana_di_Roma_,san-paolo-italy,41.8911703917,12.4915820321,1548732264
214513167,Aventino_Roma,san-paolo-italy,41.882615631,12.480426497,1548618963
476291411,Cinque_Terre,san-paolo-italy,41.8934936523,12.4874649048,1548726033
396813066,Musei_Vaticani,campo-marzio-italy,41.9057170001,12.472576226,1548700890
1026957999,Mondadori_Bookstore,cinecitta-italy,41.86036436,12.55642891,1548672335
453945777,Parione9,campo-marzio-italy,41.8988422992,12.4710277144,1548173188
221105356,Louis_Vuitton_Piazza_San_Lorenzo,campo-marzio-italy,41.9038941563,12.4787808982,1548679897
235686214,Via_della_Conciliazione,campo-marzio-italy,41.9023940449,12.4621467323,1548686417
267496647,Engelsburg_Rom,campo-marzio-italy,41.9030813562,12.4661767665,1548574251
258996444,La_Terrazza_Delle_Quadrighe,san-paolo-italy,41.8943094134,12.4832481346,1548705614
256432741,SantAngelo_Rome,campo-marzio-italy,41.893333,12.477778,1548679131
551452,LEmporio_alla_Pace,campo-marzio-italy,41.89954,12.47129,1548017797
238076282,Laltare_della_Patria_Roma,san-paolo-italy,41.8954977483,12.4828918989,1548705614
219971902,Colosseo_Foro_Romano_,san-paolo-italy,41.8926645304,12.4873130892,1536250186
775448,Teatro_Vittoria,san-paolo-italy,41.8797619381,12.4750999761,1548608747
5163836,Maranega,campo-marzio-italy,41.8954924663,12.472419136,1547757831
370101158,Georges_uomo,campo-marzio-italy,41.899680259,12.476808757,1548526743
252768319,Ambasciata_del_Brasile_a_Roma,campo-marzio-italy,41.89799,12.47282,1548264031
235726665,Bulgari_Via_Dei_Condotti_Roma,campo-marzio-italy,41.9054035282,12.4816120605,1540488581
2567843,NH_Collection_Roma_Giustiniano,campo-marzio-italy,41.9069,12.46569,1548512533
248249079,Santa_Maria_Maddalena,campo-marzio-italy,41.9000730569,12.4767243862,1548694354
216988223,Gina_Cucina_Ristorante,tor-di-quinto-italy,41.92569,12.48214,1548687627
1027054900,Bocca_della_Verita,san-paolo-italy,41.8881861137,12.4816005334,1548702955
219139080,Mercato_di_Campagna_Amica_al_Circo_Massimo,san-paolo-italy,41.8887733515,12.4834038132,1548597374
678202314,Stadio_Olimpico_di_Rugby_a_Roma,tor-di-quinto-italy,41.9336583995,12.4547672272,1535923331
249319588,Positano_Italy,torrenova-italy,41.8435277325,12.6243378315,1548622587
1021951405,Piazza_Di_Spagna,campo-marzio-italy,41.90573005,12.481941085,1470160884
246716631,Roma_Trullo,magliana-italy,41.8444775245,12.4421470798,1548688424
6642159,Stadio_di_Domiziano,campo-marzio-italy,41.90025,12.47243,1548596290
250513483,Teatro_Tor_Bella_Monaca,torrenova-italy,41.8691743324,12.6333413254,1548710587
2675068,Museo_Napoleonico,campo-marzio-italy,41.9019343882,12.4720924995,1548686627
524987471212313,Piazza_del_Popolo_Rome_Italy,campo-marzio-italy,41.9112076878,12.4762172775,1548700848
5666394,Piazza_Della_Trinit_De_Monti,campo-marzio-italy,41.906008067,12.4833183873,1548590875
616004844,San_Giovanni_dei_Fiorentini,campo-marzio-italy,41.899697,12.465022,1548620328
355369686,_,san-paolo-italy,41.8922,12.4852,1548684139
490137587,Cocacola_Summer_Festival,campo-marzio-italy,41.9106572345,12.4765341205,1484935019
508603502,Georges_donna,campo-marzio-italy,41.89836,12.47637,1548332560
736863797,Ostia_Mare,campo-marzio-italy,41.9016314234,12.4807401558,1536076383
527569970767347,5e28_cucina_e_miscele,san-paolo-italy,41.88125,12.50328,1548545097
439153935,Dior_Roma,campo-marzio-italy,41.90575,12.48208,1548674819
10119944,Grandma_Bistrot,cinecitta-italy,41.86598,12.54519,1548590509
401265510,JoyVillage_Roma,magliana-italy,41.8148915369,12.4122976911,1548693561
344041631,Subaugusta,torrenova-italy,41.853928526,12.5675948632,1548704173
1255087,Antico_Caffe_Greco,campo-marzio-italy,41.9056149622,12.4815539647,1548716370
777155162,Gilda,campo-marzio-italy,41.90364,12.48255,1548059907
246022371,Zaz_,campo-marzio-italy,41.9095853817,12.4742830563,1548605516
983993478449718,LAntica_Pizzeria_Da_Michele_Roma_Flaminio,campo-marzio-italy,41.9151,12.47463,1548680272
990985,Piazza_Zama,san-paolo-italy,41.8758452458,12.5092836976,1548621509
5828844,Via_Crescenzio,campo-marzio-italy,41.90573,12.4631,1548630733
5716737,Forno_Campo_De_Fiori,campo-marzio-italy,41.8957172782,12.4718132962,1548731596
230696954002655,Zuma_Palazzo_FENDI,campo-marzio-italy,41.904642196,12.4785563924,1548592542
10351159,Temple_University_Rome,campo-marzio-italy,41.9143492075,12.4720505881,1548538913
827899153955561,Two_Years_Ago,campo-marzio-italy,41.8973962362,12.4818506377,1548728216
230429289,Santa_Maria_dei_Miracoli_and_Santa_Maria_in_Montesanto,campo-marzio-italy,41.9101149293,12.4767808469,1548252147
505448443,Liceo_Ginnasio_E_Q_Visconti,campo-marzio-italy,41.89799,12.48013,1548508685
385814555177520,Stadio_Dei_Marmi,tor-di-quinto-italy,41.93381,12.4585899,1548708617
266003560,Roseto_Di_Roma_Capitale,san-paolo-italy,41.8851723265,12.4834510711,1536264551
509288431,Corso_Vittorio_Emanuele_II_Rome,campo-marzio-italy,41.8969,12.4724,1537465655
1020054854,LEuclide,tor-di-quinto-italy,41.9266161924,12.4812460548,1548688273
1978209959105935,Turner_Chiostro_Del_Bramante,campo-marzio-italy,41.9000663982,12.4715635913,1536586055
389245374563166,Palazzo_Ferrajoli,campo-marzio-italy,41.9008785994,12.4801739378,1548685588
136110663083678,Piazza_della_Libert_,campo-marzio-italy,41.9090919089,12.4710630866,1548542922
52133489,Goody_music,campo-marzio-italy,41.9129413915,12.4752794473,1548519615
257122712,Ristorante_La_Gattabuia,san-paolo-italy,41.8865192617,12.4772083008,1548708920
206196116115503,Via_Dei_Coronari,campo-marzio-italy,41.9005202482,12.470126152,1548703007
817528505079033,Orecchietteria_Banfi,campo-marzio-italy,41.90673,12.46937,1548668860
397017959,Ara_Pacis,campo-marzio-italy,41.9063888889,12.4755555556,1548670989
260999569,Santi_Bonifacio_ed_Alessio,san-paolo-italy,41.8836472222,12.4788472222,1548248955
268796423,Jerry_Thomas_Speakeasy,campo-marzio-italy,41.89796,12.46789,1548705486
275201352,Ambassade_de_France_en_Italie,campo-marzio-italy,41.89492,12.47099,1547917329
2998241,Pontifical_North_American_College,campo-marzio-italy,41.8969432603,12.4592186595,1548518571
289666574816698,Stadio_Olimpico_Di_Roma,tor-di-quinto-italy,41.9339226114,12.4542192577,1544995483
16503619,studio13,campo-marzio-italy,41.9053111957,12.4687802168,1548535825
624221076,Galleria_Spada,campo-marzio-italy,41.8943,12.47188,1548694684
2850169,Palazzo_Braschi,campo-marzio-italy,41.897458,12.472819,1548700233
381572875,Circo_Massimo_Roma,san-paolo-italy,41.8838598825,12.4879273275,1548658280
217642977,Flavio_Al_Velavevodetto_Quartiere_Testaccio_Roma,san-paolo-italy,41.87657,12.4761,1495317223
780582980,Festival_del_Verde_e_del_Paesaggio,tor-di-quinto-italy,41.9289722763,12.4747659454,1546433439
2422205,Piazza_Della_Maddalena,campo-marzio-italy,41.9001326774,12.4766081354,1548694354
438463227,Piazza_del_Popolo,campo-marzio-italy,41.91043999,12.4765854516,1548515142
791216777,Milano_Centrale,campo-marzio-italy,41.8991826667,12.4722357,1513368324
245601417,I_Vitelloni,san-paolo-italy,41.8825,12.50775,1548333247
426473284,Borgo_Pio_Roma_Italia,campo-marzio-italy,41.9037662595,12.4617446492,1548579307
151687465,The_Gin_Corner,campo-marzio-italy,41.9023040538,12.4756422087,1548711550
7444112,Foro_di_Cesare,san-paolo-italy,41.894008,12.484936,1548702876
214583143,Alfredo_alla_Scrofa,campo-marzio-italy,41.90235,12.47508,1548682570
235578076,Capitoline_Museum,san-paolo-italy,41.8929560218,12.482204891,1543808807
223681826,Antica_Trattoria_Da_Carlone,san-paolo-italy,41.88899,12.47573,1548674366
1006418746078862,Palazzo_Cipolla_Mostra_Banksy,campo-marzio-italy,41.8996300263,12.480893673,1548584139
1147894,Giardini_di_Castel_SantAngelo,campo-marzio-italy,41.903495,12.465534,1548707295
268925131,La_Montecarlo,campo-marzio-italy,41.89716,12.47058,1505073719
215059779,Caff_Per_,campo-marzio-italy,41.89551,12.4701,1548404838
567528765,San_Silvestro_in_Capite,campo-marzio-italy,41.9031111111,12.4806388889,1548617531
1012197764,MiV_,campo-marzio-italy,41.90928,12.46615,1548684602
234510282,Il_Convivio_Troiani,campo-marzio-italy,41.9015770935,12.4724701663,1548601228
7342624,Hotel_Mozart_Roma,campo-marzio-italy,41.9074350064,12.4779821638,1548664022
288766907,Borgo,campo-marzio-italy,41.904066,12.461629,1524567758
729680304,Kaos_Store,tor-di-quinto-italy,41.94773,12.47241,1548687338
1018079716,Roma_Vintage_Boutique,san-paolo-italy,41.88057,12.47762,1548692359
5975167,Lungotevere_De_Cenci,san-paolo-italy,41.8918016747,12.4751971261,1547749051
5975167,Lungotevere_De_Cenci,campo-marzio-italy,41.8918016747,12.4751971261,1547749051
892821182,Tennis_Club_Garden,cinecitta-italy,41.844684279,12.5731886342,1548166115
1022215879,Linda_il_merlo_indiano,tor-di-quinto-italy,41.9311506463,12.4217436844,1517687761
988250002,Quartiere_Flaminio,tor-di-quinto-italy,41.9263644833,12.4630312367,1548420639
1030005109,Zara_Italy,campo-marzio-italy,41.9016995645,12.4804305962,1548691570
245607495,Dondolo_Roma,monte-sacro-italy,41.931286415,12.537806905,1548625073
3400661,Gelateria_Dei_Gracchi,campo-marzio-italy,41.90916,12.46685,1548517319
276947264,Lungotevere_Isola_Tiberina_Roma_,san-paolo-italy,41.8896039343,12.4786140863,1548699815
218666880,Ponte_Sant_Angelo_Roma,campo-marzio-italy,41.9016866909,12.4663942454,1548693441
235578604,Tiffany_Co_,campo-marzio-italy,41.9067101473,12.4808237122,1548449731
1024423025,Tacito,campo-marzio-italy,41.90769,12.46704,1548621030
719676,Lungotevere_Tor_Di_Nona,campo-marzio-italy,41.90129,12.47054,1548696582
258675206,Chiesa_di_San_Luigi_dei_Francesi,campo-marzio-italy,41.8994444444,12.4747222222,1548709721
10034927,Akbar,san-paolo-italy,41.88927,12.4763,1547470510
262515166,Castel_Sanangelo_Roma,campo-marzio-italy,41.9014724886,12.4654336374,1548698039
257424531345159,Sambamaki,campo-marzio-italy,41.90518,12.47223,1548526518
2319520,La_Rosetta,campo-marzio-italy,41.8997748709,12.4765074988,1548694567
336794781,Santo_Spirito_in_Sassia,campo-marzio-italy,41.9011944444,12.4611388889,1548611699
263877155,Palermo_Sicilia,san-paolo-italy,41.8777367676,12.5024326799,1548703402
188996675078848,River_Tiber,campo-marzio-italy,41.90196,12.46645,1541689027
449657407,SoHo_Caf_,cinecitta-italy,41.8614508943,12.5331048935,1548708524
423759571421104,Parterre_Farnesina_Social_Garden,tor-di-quinto-italy,41.9352558427,12.4623906612,1548000101
1086249,Piazza_della_Minerva,campo-marzio-italy,41.8977836518,12.4775686169,1548687765
252109950,ZERO9,magliana-italy,41.8147087,12.4363804,1548667310
2004311409843343,Trinit_dei_Monti,campo-marzio-italy,41.90623,12.48333,1548720272
241267906,Piazza_della_libert_,campo-marzio-italy,41.9093429071,12.4710276833,1521980676
161403,Tempio_di_Adriano_Roma,campo-marzio-italy,41.89999,12.47951,1548617360
235086749,La_Pariolina,tor-di-quinto-italy,41.9286670222,12.4860640003,1548633078
276361284,Campo_De_Fiori_Roma_talia,campo-marzio-italy,41.8949686405,12.4729572485,1548671482
291034465,Antica_Enoteca_Via_della_Croce,campo-marzio-italy,41.90629,12.47982,1548081616
1272444,Via_della_Farnesina,tor-di-quinto-italy,41.9434347157,12.4594935825,1548696775
1848462258725571,Massyedany_Cheapandchic,magliana-italy,41.8078053964,12.4346892464,1547467572
453939548,Percorsi,san-paolo-italy,41.88912,12.47583,1542744531
1013335466,Forte_Bravetta,magliana-italy,41.86700278,12.42445278,1548704864
236839620,FLUID_Cocktail_Wine_Bar_Roma,campo-marzio-italy,41.8984463159,12.4702590474,1540235994
705739534,Phantheon,campo-marzio-italy,41.8993010198,12.4769481342,1537559692
464402043746769,Spotted_Virgin_Active_Calasanzio,tor-di-quinto-italy,41.9431472195,12.4377378574,1548712814
276569913,Campo_Nicola_Pietrangeli_Foro_Italico,tor-di-quinto-italy,41.9292324694,12.4560675474,1548677682
278391169,S_O_G_E_N_E_Facolt_Di_Scienze_Matematiche_Fisiche_e_Naturali,torrenova-italy,41.8537184377,12.6043785754,1548681756
1521807,Birreria_Trilussa,campo-marzio-italy,41.8917728738,12.4690988955,1548541374
225515979,da_Sabatino_le_Cave_di_S_Ignazio,campo-marzio-italy,41.899403757,12.4797993895,1548104447
232993531,Forum_Romanum,san-paolo-italy,41.8930124806,12.4876296468,1548684139
282113039,Camera_dei_Deputati_Palazzo_dei_Gruppi_Parlamentari_Via_Campo_Marzio,campo-marzio-italy,41.901490989,12.4774524462,1548706152
372540948,Tibre,campo-marzio-italy,41.89886572,12.4641211,1548695005
227060228,Temple_of_Saturn,san-paolo-italy,41.892428,12.484111,1548707830
2458970,Piazza_della_Chiesa_Nuova,campo-marzio-italy,41.8979532638,12.4690508767,1548710747
984383353,Santissima_Trinit_dei_Pellegrini_Rome,campo-marzio-italy,41.8936111111,12.4727777778,1548598959
483835038,Terrazza_Del_Gianicolo,campo-marzio-italy,41.8917816981,12.4610884114,1548695920
1027815354,Roma_Beer_Company,tor-di-quinto-italy,41.93735,12.46661,1548709850
2958209,Bar_Frattina,campo-marzio-italy,41.90453,12.48233,1548617880
218624939,Piscine_Del_Foro_Italico_Roma,tor-di-quinto-italy,41.9308515,12.4583343,1543340178
4284410,The_Highlander_Pub_Rome,campo-marzio-italy,41.90323,12.47662,1548677516
527573500933065,Roma_Italia,campo-marzio-italy,41.89624,12.48215,1538014093
242653497,C_S_A_Intifada,monte-sacro-italy,41.90758,12.54634,1547834034
773316537,San_Saba,san-paolo-italy,41.878636,12.485447,1548688225
471728,Castel_SantAngelo,campo-marzio-italy,41.902455579,12.4662019527,1459976446
354698712,Via_del_Corso,campo-marzio-italy,41.9060277778,12.4782722222,1529407926
82829376,Da_Brando,tor-di-quinto-italy,41.939757123,12.469642546,1548699841
380839300,Via_del_Corso_Rome,campo-marzio-italy,41.9060277778,12.4782722222,1491733510
262307013,Glocal_Boutique_Piazza_in_Campomarzio,campo-marzio-italy,41.9012985,12.4762802,1548672587
1017834709,Heaven_Group_Sporting_Club,torrenova-italy,41.828177504,12.6121785334,1548738758
1025464210876722,I_Giardini_d_Estate,tor-di-quinto-italy,41.9509431911,12.4614139077,1544468918
418734438,Tempio_di_Adriano,campo-marzio-italy,41.89999,12.47951,1548733210
720974308057250,Two_Sizes,campo-marzio-italy,41.89805,12.47152,1548630986
176689822816862,Cappella_Orsini_Club,campo-marzio-italy,41.89548,12.47323,1548298653
511181,Corso_Vittorio_Emanuele_II,campo-marzio-italy,41.8981436076,12.4684893198,1537474701
235534826,Caff_Bianco,campo-marzio-italy,41.89661,12.47279,1546367251
348422589,Tre_Scalini_dal_1946,campo-marzio-italy,41.899226579,12.4727413058,1548673605
14703421,Hotel_Isa,campo-marzio-italy,41.9069028267,12.4690065547,1548581298
251567642,Sweety_Gelato_Roma_Ponte_Milvio,tor-di-quinto-italy,41.9382886213,12.4686402082,1548602924
276160435,Internazionali_Di_Tennis_BNL_DItalia_Roma_Foro_Italico,tor-di-quinto-italy,41.9285211326,12.4563488138,1548438885
399763146739355,Lungomare_di_Pesaro,magliana-italy,41.8080546232,12.42951302,1524505973
963535070463764,Tribuna_autorit_stadio_Olimpico,tor-di-quinto-italy,41.9337493441,12.4539382755,1537532669
1025456,Via_Dei_Banchi_Vecchi,campo-marzio-italy,41.8974978333,12.46789652,1503838609
1031587871,Passeggiata_Del_Gianicolo,campo-marzio-italy,41.8965181815,12.461085792,1548699895
9781055,Stadio_Paolo_Rosi,tor-di-quinto-italy,41.9342451521,12.4890738838,1548275706
279985315758967,Pipero_Roma,campo-marzio-italy,41.897692,12.468803,1548702075
236242507,Zodiaco,tor-di-quinto-italy,41.9233889549,12.4527324502,1548702110
348391388,Forum_Romanum,san-paolo-italy,41.8922,12.4852,1548684139
4981534,Fortunato_al_Pantheon,campo-marzio-italy,41.8997607918,12.4767563053,1548365179
1012303724,INK_Factory_Tattoo_Roma,san-paolo-italy,41.88148,12.50219,1548437788
1892887120981537,Tevere_Expo,campo-marzio-italy,41.90152,12.4693,1523874800
134994383834495,Piazza_Navona,campo-marzio-italy,41.8984193267,12.4731986767,1537384453
256320320,Parco_Villa_Chigi_Roma_,monte-sacro-italy,41.9336290252,12.5190534229,1548746579
2043900,IL_CORALLO,campo-marzio-italy,41.8991352306,12.4699581676,1548534155
911367189012081,La_FINE,campo-marzio-italy,41.89908,12.4648,1548705675
10865866,Galleria_Lorcan_ONeill_Roma,campo-marzio-italy,41.8939038926,12.4745517969,1548661625
100659050,VARSI,campo-marzio-italy,41.8952935039,12.4736317992,1548013880
247382420,Parigi,campo-marzio-italy,41.8968229764,12.4729712297,1542092465
258227031384044,The_Pantheon_Iconic_Rome_Hotel,campo-marzio-italy,41.89804,12.4759,1548691485
216000388,Fontana_del_Pantheon,campo-marzio-italy,41.89920833,12.47666667,1545082379
152407,Museo_Barracco,campo-marzio-italy,41.89669,12.47303,1548601983
1031884474,ZUM_Roma,campo-marzio-italy,41.89634,12.47278,1548741872
224057474,Laduree_Paris,campo-marzio-italy,41.90446,12.4799399,1519218279
235673387,Palazzo_Borghese,campo-marzio-italy,41.90388611,12.47649444,1548714758
87369623,Di_Qu_,campo-marzio-italy,41.9057126543,12.4798649261,1546273365
382043848834145,Collegio,campo-marzio-italy,41.90012,12.4777799,1548707236
128187851280857,Daforma_Gallery,campo-marzio-italy,41.89623,12.47083,1548343947
255481119,Largo_Goldoni_Roma,campo-marzio-italy,41.9045909642,12.4787940446,1548743019
241451846,Montepulciano_Italy_Tuscany_,campo-marzio-italy,41.9036815017,12.4794173504,1548629921
1020538397,Spazio_Fotografico_Tiburno_2_0,monte-sacro-italy,41.9113477108,12.5463223457,1548708078
275824931,Defrag,monte-sacro-italy,41.9485893595,12.5309776,1548697792
499863,Babingtons_Tea_Rooms,campo-marzio-italy,41.90608,12.48226,1548615755
238138604,Villa_Borgese_Park,campo-marzio-italy,41.9068332293,12.4663751554,1548711226
236126392,Italy_Roma,campo-marzio-italy,41.9022431544,12.4750387141,1537371588
272660759,Liceo_Statale_Tito_Lucrezio_Caro,tor-di-quinto-italy,41.9324144849,12.4770773919,1547731621
359277259,Piazza_del_Popolo_Roma,campo-marzio-italy,41.9102340727,12.4757348182,1548413634
329070487,Triplo,campo-marzio-italy,41.9138988481,12.4751626218,1547822032
234448610,PorknRoll,monte-sacro-italy,41.90771,12.53635,1548590106
1842807309285704,Hybris_Art_Gallery,san-paolo-italy,41.88939,12.47571,1548597473
236255036,Core_Latino_Tatuaggi,monte-sacro-italy,41.92974,12.52414,1548676742
8210610,Albergo_del_Senato,campo-marzio-italy,41.8991843,12.4771663,1548601605
240565541,H_M_Via_Del_Corso,campo-marzio-italy,41.9085617,12.4771795,1547609901
259424996,La7_Centro_di_Produzione_Roma_,tor-di-quinto-italy,41.9209729333,12.4567023867,1548687538
165081747686452,Magnum_Pleasure_Store_Roma,campo-marzio-italy,41.90472,12.47786,1548686194
252392432,Ristorante_Cuccuruc_,tor-di-quinto-italy,41.925178254,12.4593890878,1548546645
36863708,Christian_Louboutin,campo-marzio-italy,41.9035,12.47781,1548160624
695853266,Forum_Romanum,san-paolo-italy,41.8922,12.4852,1548692200
35408319,Via_Tomacelli,campo-marzio-italy,41.9048984117,12.477371736,1532928208
301490179,Palmarola_Ponza,san-paolo-italy,41.878466908,12.5087454713,1548720089
148697612429840,Campo_De_fiori_Ristorante,campo-marzio-italy,41.895394637,12.4721241275,1548180210
806526287,Fontana_Di_Tervi_Rome_Italy,campo-marzio-italy,41.9009798,12.4830419,1548717090
484107388593455,St_Peters_Square,campo-marzio-italy,41.90243,12.46534,1548739728
1422976124394741,Taba_Caf_Campo_d_Fiori,campo-marzio-italy,41.895574815,12.4721171493,1548598467
271939064,Baccano_Bistrot_A_Fontana_di_Trevi,campo-marzio-italy,41.9004077562,12.4823747806,1548710632
7416521,Palazzo_Doria_Pamphili,campo-marzio-italy,41.8976733909,12.4812627039,1548699494
1026499466,Piazza_Navona_Rome_ITALY,campo-marzio-italy,41.899513063,12.4730804176,1530382204
227541612,Piazza_Navonna_Roma_italia_,campo-marzio-italy,41.897866723,12.4737892656,1485457874
574991126,Morrisons_Pub,campo-marzio-italy,41.90703,12.46798,1548542937
636527101,Roma_Vigna_Clara,tor-di-quinto-italy,41.9467149057,12.4658622443,1548694952
404103239,Villa_Celimontana,san-paolo-italy,41.8842689772,12.4947928354,1548344460
1042915459150207,Giulietta,san-paolo-italy,41.8828343,12.47655,1548607678
1006984341,Lungotevere_Castello,campo-marzio-italy,41.9028599,12.46905,1542396744
43606853,Taverna_Lucifero,campo-marzio-italy,41.8964462,12.4709787,1548685774
403925534,Giulio_Verne,magliana-italy,41.7795430757,12.3592353778,1524062341
108070296,Acqua_Salata_Fish_Lounge,campo-marzio-italy,41.906119926,12.4790334709,1547222863
336582478,Temple_of_Venus_and_Roma,san-paolo-italy,41.8908333333,12.4897222222,1548376926
222633778,Ristorante_Sapore_di_Mare,campo-marzio-italy,41.8977,12.47351,1548456100
241873168,La_Piccola_Cuccagna,campo-marzio-italy,41.8975742632,12.4730091533,1548655843
249381710,Ristorante_Consolini,san-paolo-italy,41.88192,12.47704,1548447822
285396329,Pizzeria_Pizza_Ciro,campo-marzio-italy,41.90326,12.48222,1548684758
405664056,Juvenia_SSD,tor-di-quinto-italy,41.9672657551,12.45144513,1548619923
1435954669855317,Ponte_Cavour,campo-marzio-italy,41.9053356721,12.4737024438,1548710447
223272418,Ippodromo_Militare_Tor_Di_Quinto,tor-di-quinto-italy,41.9461152501,12.4882734688,1530804315
2508535,Ponte_Cavour,campo-marzio-italy,41.9049373386,12.4747200679,1544431249
844430045,Vittoriano_Monument,san-paolo-italy,41.89440144,12.48305534,1548705614
3984571,Hotel_Adriano,campo-marzio-italy,41.9022949821,12.475531407,1548594792
415148248879669,Pantaleo_Food_Wine_Mixology,campo-marzio-italy,41.89716,12.47257,1548674728
221739132,Colle_del_Sole,magliana-italy,41.8425253721,12.4287907862,1548694604
588858585,Castel_Sant_Angelo,campo-marzio-italy,41.903064,12.466355,1548698039
362871321,Gelateria_Venchi,campo-marzio-italy,41.9000409403,12.4808896933,1502120858
451427559,The_Space_Cinema,magliana-italy,41.8151835764,12.4119224615,1548680611
252376674,Restaurant_Il_San_Lorenzo,campo-marzio-italy,41.8952558757,12.4742793914,1548715543
177999459554085,Pantheon_Roma,campo-marzio-italy,41.8978760764,12.4770934414,1548682254
501878256,Ripa,san-paolo-italy,41.885346,12.481799,1548740338
247053123,Imperial_Forum,campo-marzio-italy,41.89506,12.47641,1548707636
228591237,Babette_Via_Margutta,campo-marzio-italy,41.9096091908,12.478318574,1548605212
1556713341113048,Venchi,campo-marzio-italy,41.899544535,12.4774222324,1548619778
32491394,Oasi_Park,cinecitta-italy,41.8611941712,12.5634853788,1548617950
22189717,Ristorante_Tre_Scalini,campo-marzio-italy,41.89939,12.47275,1542139234
267352065,Supplizio,campo-marzio-italy,41.89749,12.46786,1548705898
251369755,A_Tavola_con_lo_Chef,tor-di-quinto-italy,41.9344215,12.4262199,1548703130
240706103,Duomo_Di_Orvieto,campo-marzio-italy,41.9006881706,12.4777459194,1541854159
50621422,Splendor_Parthenopes_Roma,campo-marzio-italy,41.90513,12.472,1518198771
266934964,La_Villetta_dal_1940,san-paolo-italy,41.8780861056,12.4825554609,1548709131
227538405,Roma_Capitale_Centro,tor-di-quinto-italy,41.94411,12.47,1503392539
278410386,Internazionali_Bnl_Roma_Campo_Centrale,tor-di-quinto-italy,41.9282525638,12.4563364623,1527765441
376195362,Stadio_Olimpico_Derby_Lazio_Roma,tor-di-quinto-italy,41.9337619382,12.4543555136,1496058428
511774369162628,Herm_s,campo-marzio-italy,41.90529,12.48038,1548712321
226606565,Roma_Altare_Della_Patria,campo-marzio-italy,41.8967990522,12.4822053277,1548705614
295199719,Le_Jardin_Events,tor-di-quinto-italy,41.9538253587,12.4747395515,1536499020
725969222,Fontana_Di_Trevi,campo-marzio-italy,41.900875,12.483167,1548717090
280588071,40gradi,campo-marzio-italy,41.906790855,12.465673586,1548586800
1025335743,Terme_Di_Caracalla_Roma,san-paolo-italy,41.8786606,12.4927193,1508699451
2648962,Largo_Spartaco,cinecitta-italy,41.859470425,12.5521816262,1548707451
259863660,Fontana_di_Trevi,campo-marzio-italy,41.900875,12.4831666667,1548717090
225263641,Liceo_Classico_Dante_Alighieri,campo-marzio-italy,41.908248931,12.471229929,1548606380
4953109,Maison_Valentino,campo-marzio-italy,41.9052285445,12.4828593889,1504101630
266882734,P_zza_Navona,campo-marzio-italy,41.898949471,12.4730030015,1485457874
401968396933828,Fori_Imperiali,san-paolo-italy,41.8922211003,12.4836338369,1548702927
1021797116,100_Montaditos_Colosseo,san-paolo-italy,41.89319,12.48822,1548618694
1032205261,Sbanco,san-paolo-italy,41.8755056,12.5108677,1548689856
254113159,Forum_Roma_Italia,campo-marzio-italy,41.9018285933,12.4731985053,1548684139
1495575467120794,Osteria_da_Fortunata,campo-marzio-italy,41.8961697338,12.4717563976,1548700730
268929361,Sinagoga_Del_Ghetto_Di_Roma,san-paolo-italy,41.8918936516,12.4782891587,1548712364
517163515,Don_Nino_Pantheon,campo-marzio-italy,41.89941,12.47744,1545082379
2804207,Palazzo_Taverna,campo-marzio-italy,41.8998262879,12.4683825838,1502544793
318891065,Piazza_Di_Spagna_Roma_Italy,campo-marzio-italy,41.9059077238,12.482364698,1548678191
218500089,Complesso_Monumentale_del_Vittoriano,san-paolo-italy,41.8941672088,12.4843316863,1548705614
839988083,Doria_Center,campo-marzio-italy,41.8967934967,12.4816298956,1548688898
140868521,Enoteca_la_torre_a_Villa_Laetitia,campo-marzio-italy,41.91654,12.46943,1548699608
