wiki_name,lat,lon,views,roads
East Side Gallery,52.503055555556,13.444722222222,124926,Mühlenstraße
Brandenburg Gate,52.51627222222201,13.377722222222,592225,Brandenburger Tor
Berlin Cathedral,52.519166666667005,13.401111111111,100669,Am Lustgarten
Kreuzberg,52.4875,13.383333333333,94047,Sixtusgarten
Mitte,52.51666666666701,13.366666666667,51439,John-Foster-Dulles-Allee
Memorial to the Murdered Jews of Europe,52.513888888889,13.378888888889,337363,Cora-Berliner-Straße
Berlin Wall,52.51611,13.37694,2574641,Ebertstraße
Friedrichshain-Kreuzberg,52.5,13.45,19390,Schlesische Straße
Potsdamer Platz,52.5094,13.3765,119613,Potsdamer Platz
Checkpoint Charlie,52.5075,13.390270000000001,386808,Friedrichstraße
Mercedes-Benz Arena (Berlin),52.505555555556,13.443333333333001,67963,Mühlenstraße
Berlin Zoological Garden,52.508333333333,13.3375,64648,Hardenbergplatz
Berlin Hauptbahnhof,52.524930000000005,13.369181,99538,Europaplatz
Gendarmenmarkt,52.513611111111004,13.392777777778,44959,Gendarmenmarkt
Fernsehturm Berlin,52.520833333332995,13.409444444444,163664,Panoramastraße
Friedrichshain,52.515833333333,13.454166666667,46467,Karl-Marx-Allee
Reichstag dome,52.518611111111,13.376111111111,756577,Platz der Republik
"Jewish Museum, Berlin",52.501999999999995,13.395,62533,Lindenstraße
Reichstag building,52.5186,13.3763,393733,Platz der Republik
Museum Island,52.521388888889,13.395555555556,114663,Bodestraße
Berlin Potsdamer Platz station,52.509444444444,13.375833333333,9958,Potsdamer Platz
Hamburger Bahnhof,52.528333333332995,13.372222222222,19608,Invalidenstraße
Kaufhaus des Westens,52.501666666667006,13.341111111111,55818,Tauentzienstraße
Pergamon Museum,52.521,13.395999999999999,157339,Bodestraße
"Tiergarten, Berlin",52.51666666666701,13.366666666667,26299,John-Foster-Dulles-Allee
Berghain,52.511111111111,13.443055555555999,245807,Rüdersdorfer Straße
Mall of Berlin,52.51,13.3798,12129,Leipziger Platz
Tempelhof-Schöneberg,52.466666666667,13.383333333333,12548,Neue Straße
Hackescher Markt,52.523333333333,13.402777777778,21364,An der Spandauer Brücke
Berlin Victory Column,52.514444444443996,13.35,105435,Großer Stern
Prenzlauer Berg,52.539166666667,13.424166666666999,50057,Prenzlauer Allee
Hackesche Höfe,52.52416666666701,13.402222222221999,16527,Rosenthaler Straße
Alexanderplatz,52.521666666667,13.413333333333002,118189,Alexanderplatz
Alte Nationalgalerie,52.520833333332995,13.398055555555999,41013,Bodestraße
Berlin Tempelhof Airport,52.473611111111005,13.401666666667,189462,09L/27R
Warschauer Straße,52.516580000000005,13.380999999999998,4032,Unter den Linden
Berlinische Galerie,52.504166666667004,13.398888888889001,8651,Alte Jakobstraße
Sony Center,52.51,13.373611111111,38851,Potsdamer Straße
Berliner Philharmonie,52.51,13.37,28881,Herbert-von-Karajan-Straße
Konzerthaus Berlin,52.513611111111004,13.392222222222,26031,Gendarmenmarkt
Tempodrom,52.501666666667006,13.381111111111,17528,Möckernstraße
West Berlin,52.5333,13.1667,340117,Kol. Ludwig-Heim
Bode Museum,52.521944444443996,13.394722222221999,44619,Bodestraße
Bundestag,52.518611111111,13.376111111111,507842,Platz der Republik
Berlin Brandenburger Tor station,52.516388888889,13.380833333333001,6051,Unter den Linden
Deutsches Historisches Museum,52.518333333333,13.396111111110999,29850,Hinter dem Gießhaus
Humboldt University of Berlin,52.518055555556,13.393333333333,155456,Unter den Linden
Altes Museum,52.519444444444,13.398333333333001,67883,Bodestraße
Hotel Adlon,52.51604722222201,13.380472222222,62916,Unter den Linden
Neue Welt (Berlin),52.486298,13.4215,3588,Hasenheide
Oberbaum Bridge,52.501944444444,13.445555555556,32233,Oberbaumbrücke
Friedrichstadt-Palast,52.523906999999994,13.388797,13018,Friedrichstraße
Velodrom (Berlin),52.530833333333,13.450833333333001,9456,Paul-Heyse-Straße
Moabit,52.533333333333,13.333333333333002,24819,Erna-Samuel-Straße
Neues Museum,52.520555555556,13.397777777778002,70971,Bodestraße
Kaiser Wilhelm Memorial Church,52.505,13.335,99786,Budapester Straße
Topography of Terror,52.506944444443995,13.382777777778001,123188,Niederkirchnerstraße
German Museum of Technology,52.498611111111,13.3775,21157,Trebbiner Straße
Martin-Gropius-Bau,52.506388888889,13.381944444444,10836,Stresemannstraße
Görlitzer Park,52.496388888889,13.437777777778,8594,Wiener Straße
Volkspark Friedrichshain,52.526666666667005,13.433888888889001,13480,
Viktoriapark,52.488888888889,13.380555555555999,13243,Kreuzbergstraße
DDR Museum,52.51902777777799,13.402222222221999,32142,Karl-Liebknecht-Straße
Berlin Friedrichstraße station,52.520277777778,13.386944444444001,23492,Georgenstraße
Müggelberge,52.416109999999996,13.633329999999999,5702,
Matrix (club),52.504444444444,13.448888888889,6594,Warschauer Platz
Frankfurter Tor,52.515833333333,13.454166666667,11482,Karl-Marx-Allee
Nollendorfplatz,52.499166666667,13.353888888889001,11422,Maaßenstraße
Karl-Marx-Allee,52.517777777777994,13.435277777778001,45865,Karl-Marx-Allee
Steglitz-Zehlendorf,52.433333333332996,13.25,10564,Mittelstraße
Aquarium Berlin,52.505833333332994,13.340555555556,8001,Budapester Straße
"Gemäldegalerie, Berlin",52.508472222222004,13.365416666666999,35552,Sigismundstraße
Kottbusser Tor (Berlin U-Bahn),52.499166666667,13.418055555556,9438,Skalitzer Straße
Nikolaiviertel,52.51666666666701,13.407222222222,18634,Nikolaikirchplatz
Charlottenburg,52.51666666666701,13.3,56256,Schustehrusstraße
Park Inn Berlin,52.522777777777996,13.412777777778,13809,Alexanderstraße
Lustgarten,52.518611111111,13.399722222222,18932,Am Lustgarten
Wittenbergplatz (Berlin U-Bahn),52.501944444444,13.343055555555999,6655,Wittenbergplatz
Paul-Lincke-Ufer,52.493655555556,13.429366666666999,2773,Paul-Lincke-Ufer
Spree,52.536111111111005,13.208611111110999,64419,Stresowstraße
Wedding (Berlin),52.55,13.366666666667,36004,Maxstraße
SO36,52.500277777777995,13.422222222221999,13265,Oranienstraße
Admiralspalast,52.520833333332995,13.388611111111,6366,Friedrichstraße
Ufa-Palast am Zoo,52.506111111111004,13.334166666666999,5068,Hardenbergstraße
Tiergarten (park),52.513888888889,13.356944444444,59105,
Neue Nationalgalerie,52.506805555556,13.367916666666998,34661,Potsdamer Straße
Hermannplatz (Berlin U-Bahn),52.487222222222,13.424722222222,5978,Hermannplatz
Ramones Museum,52.50096,13.444142999999999,5027,Oberbaumstraße
Charlottenburg-Wilmersdorf,52.5,13.283333333333001,20705,Halenseestraße
Soviet War Memorial (Tiergarten),52.51666666666701,13.372222222222,35100,Straße des 17. Juni
Kino International,52.520555555556,13.422777777778,7406,Karl-Marx-Allee
Mehringdamm,52.4917,13.3872,4021,Mehringdamm
Komische Oper Berlin,52.515833333333,13.386944444444001,11740,Behrenstraße
Pariser Platz,52.516388888889,13.378888888889,19878,Pariser Platz
Haus der Kulturen der Welt,52.518888888888995,13.365277777778001,19754,John-Foster-Dulles-Allee
Berlin Palace,52.5175,13.402777777778,33600,Karl-Liebknecht-Straße
Monbijou Park,52.5231,13.3969,3969,Oranienburger Straße
Europa-Center,52.504444444444,13.338888888889,11304,Tauentzienstraße
Hebbel am Ufer,52.5004,13.3873,2906,Stresemannstraße
Oranienburger Straße,52.525277777777994,13.391111111111,17649,Oranienburger Straße
Wustermark railway station,52.551388888889,12.945277777778001,917,Ladestraße
The Westin Grand Berlin,52.5161,13.3886,5086,Friedrichstraße
Prenzlauer Allee,52.544166666667,13.427222222222,1686,B109
Rotes Rathaus,52.518611111111,13.408333333333001,22980,Rathausstraße
Sanssouci Park,52.401973758100006,13.033583164200001,21103,Hauptallee
Breitscheidplatz,52.50472222222201,13.335555555555999,25095,Tauentzienstraße
Berlin Südkreuz,52.475555555556,13.364444444444,10082,Hildegard-Knef-Platz
Berlin State Opera,52.51666666666701,13.395,34248,Bebelplatz
Canisius-Kolleg Berlin,52.50916666666701,13.354444444444,3465,Tiergartenstraße
Computerspielemuseum Berlin,52.5176,13.4419,10945,Karl-Marx-Allee
Berlin Warschauer Straße station,52.506,13.449000000000002,10526,Warschauer Brücke
Equestrian statue of Frederick William IV,52.5206,13.3986,1756,Bodestraße
Volkspark Mariendorf,52.443611111111004,13.395277777778,1943,Prühßstraße
Gesundbrunnen (Berlin),52.548611111111,13.390277777778001,9800,Badstraße
Straße des 17. Juni,52.514166666667,13.350555555556,27282,Großer Stern
Kronprinzenpalais,52.517222222222,13.396944444444001,31931,Unter den Linden
Nazi Germany,52.51666666666701,13.4,3250679,Schloßplatz
Friedenau,52.472222222222,13.329722222222,9537,Niedstraße
Viktoria-Luise-Platz,52.495833333332996,13.341944444444001,2040,Motzstraße
Neptunbrunnen,52.5196,13.406870000000001,13990,Rathausstraße
KitKatClub,52.511111111111,13.416666666666998,105488,Brückenstraße
German Chancellery,52.52020699999999,13.369051999999998,61294,Willy-Brandt-Straße
Bundestag (Berlin U-Bahn),52.520013888889,13.373005555555999,5351,Konrad-Adenauer-Straße
"Academy of Arts, Berlin",52.515,13.379444444444001,10198,Behrenstraße
Jannowitz Bridge,52.513936,13.415594,1830,Am Köllnischen Park
Rathaus Schöneberg,52.485555555556004,13.343055555555999,14635,John-F.-Kennedy-Platz
Moritzplatz (Berlin U-Bahn),52.503611111111,13.410833333333,4013,Segitzdamm
Landwehr Canal,52.497777777778,13.3925,15601,Waterloo-Ufer
Hansaviertel,52.51666666666701,13.338888888889,13529,Klopstockstraße
Schaubühne,52.498611111111,13.302222222222,8663,Kurfürstendamm
Berlin Wintergarten theatre,52.502222222222,13.364444444444,9531,Potsdamer Straße
Neue Wache,52.5175,13.395555555556,44380,Unter den Linden
New Palace (Potsdam),52.401111111111,13.015833333333001,40235,Hauptallee
"St. Nicholas' Church, Berlin",52.516804,13.407547000000001,10503,Nikolaikirchplatz
Deutsche Kinemathek,52.5096,13.3735,3381,Potsdamer Straße
Neukölln,52.48333333333299,13.45,44886,Brockenstraße
"St. Mary's Church, Berlin",52.520555555556,13.406666666666998,16630,Karl-Liebknecht-Straße
Wasserturm Prenzlauer Berg,52.53419,13.418560000000001,4974,Knaackstraße
"St. Thomas, Berlin",52.505277777799996,13.426666666700001,1660,Mariannenplatz
"New Synagogue, Berlin",52.524722222222,13.394444444444,23201,Oranienburger Straße
Berlin Görlitzer Bahnhof,52.498999999999995,13.431,5405,Skalitzer Straße
Maxim Gorki Theater,52.5183,13.3953,3594,Am Festungsgraben
Berlin Yorckstraße station,52.492222222222004,13.367777777778,2833,Mansteinstraße
Bunker (Berlin),52.523333333333,13.383888888889,18466,Albrechtstraße
"French Cathedral, Berlin",52.514323,13.392119000000001,15216,Gendarmenmarkt
Marx-Engels Forum,52.518333333333,13.404166666666999,12384,Karl-Liebknecht-Straße
Turmstraße,52.526305555556,13.343027777778001,1739,Turmstraße
AquaDom,52.519722222222,13.402777777778,19257,Karl-Liebknecht-Straße
Kulturforum,52.507,13.370999999999999,8365,Potsdamer Straße
Osloer Straße (Berlin U-Bahn),52.556944444444,13.373611111111,2751,Osloer Straße
Märchenbrunnen,52.528055555556,13.426944444444,7956,Am Friedrichshain
Zeiss Major Planetarium,52.542986111111,13.427986111111,2563,Prenzlauer Allee
Berlin-Gesundbrunnen station,52.548611111111,13.389444444444,8636,Badstraße
Steglitz,52.466666666667,13.333333333333002,13575,Dickhardtstraße
World Clock (Alexanderplatz),52.52117,13.41332,3206,Alexanderplatz
Weinmeisterstraße (Berlin U-Bahn),52.525,13.405,2611,Neue Schönhauser Straße
Führerbunker,52.5125,13.3815,451536,An der Kolonnade
Mauerpark,52.543611111111005,13.403333333333,32470,Gleimstraße
Bülowstraße (Berlin U-Bahn),52.497701,13.362287,3931,Bülowstraße
Kunstgewerbemuseum Berlin,52.5097,13.3674,6493,Tiergartenstraße
Bebelplatz,52.516388888889,13.392777777778,37783,Bebelplatz
Gneisenaustraße (Berlin U-Bahn),52.491388888889,13.396111111110999,2187,Gneisenaustraße
City West,52.5047,13.3353,10494,Tauentzienstraße
Nollendorfplatz (Berlin U-Bahn),52.499166666667,13.353888888889001,6407,Maaßenstraße
Mitte (locality),52.519444444444,13.406666666666998,28173,Spandauer Straße
Ernst-Thälmann-Park,52.538055555556,13.433888888889001,4693,Greifswalder Straße
Berliner FC Dynamo,52.540833333333,13.476111111110999,81257,Weißenseer Weg
Leipziger Platz,52.51,13.379000000000001,5078,Leipziger Platz
Halensee,52.494722222222,13.285555555556,6024,Tunnel Rathenau-Platz
Heinrich-Heine-Straße (Berlin U-Bahn),52.51027777777799,13.415833333333001,2714,Heinrich-Heine-Straße
St. Hedwig's Cathedral,52.515833333333,13.394722222221999,19077,Hinter der Katholischen Kirche
Olympiastadion (Berlin),52.514722222222005,13.239444444444,196061,Olympischer Platz
Berlin Bornholmer Straße station,52.554444444444,13.398055555555999,3158,Bornholmer Straße
Berlin Anhalter Bahnhof,52.503055555556,13.381944444444,24792,Askanischer Platz
Olympia-Stadion (Berlin U-Bahn),52.517222222222,13.25,4054,Rossitter Weg
Friedrichstraße,52.51666666666701,13.389166666666998,26010,Friedrichstraße
Berlin Greifswalder Straße station,52.539722222222004,13.439444444444002,1219,Greifswalder Straße
European School of Management and Technology,52.515555555556,13.401111111111,15436,Schloßplatz
East Berlin,52.518611111111,13.404444444444001,238226,Karl-Liebknecht-Straße
Humboldt Box,52.5177,13.400429,10277,Schloßplatz
Leipziger Straße,52.51027777777799,13.390277777778001,5348,Friedrichstraße
Berlin State Library,52.506388888889,13.370277777778,21237,Reichpietschufer
Schwules Museum,52.49083333333299,13.387777777778,6786,Mehringdamm
Berlin Zoologischer Garten railway station,52.507222222222005,13.3325,24439,Hardenbergplatz
Spittelmarkt (Berlin U-Bahn),52.511111111111,13.403611111111,3898,Wallstraße
Märkisches Museum,52.513611111111004,13.414722222221998,10853,Am Köllnischen Park
Franz-Neumann-Platz (Berlin U-Bahn),52.564722222222,13.363888888889,1411,B96
Berlin-Charlottenburg station,52.50472222222201,13.303333333333,4213,Stuttgarter Platz
Berlin Innsbrucker Platz station,52.478611111111,13.343888888889001,2402,Wexstraße
Abgeordnetenhaus of Berlin,52.508055555556,13.381944444444,18360,Niederkirchnerstraße
Großer Stern,52.514444444443996,13.35,4552,Großer Stern
Charlottenburg Palace,52.5209,13.2957,106828,Spandauer Damm
Fischerinsel,52.513055555556,13.406666666666998,7213,Fischerinsel
Bellevue Palace (Germany),52.5175,13.353333333333001,53033,Spreeweg
Tauentzienstraße,52.502222222222,13.340833333333,7755,Tauentzienstraße
Greifswald,54.083333333332995,13.383333333333,79115,Gützkower Landstraße
Berlin Alexanderplatz station,52.521388888889,13.411944444444,12068,Dircksenstraße
Checkpoint Charlie Museum,52.507777777777996,13.390555555555999,26344,Friedrichstraße
Pankstraße (Berlin U-Bahn),52.55222222222201,13.381666666666998,2359,Badstraße
Teufelsberg,52.4975,13.241111111111,93928,Teufelsseechaussee
2016 Berlin truck attack,52.505,13.335555555555999,242,Budapester Straße
Rosa-Luxemburg-Straße,52.526666666667005,13.411111111111,1905,Rosa-Luxemburg-Straße
Schloßstraße (Berlin U-Bahn),52.460833333333,13.324444444444001,1963,Schloßstraße
Federal Foreign Office,52.514722222222005,13.399444444444,23734,Werderscher Markt
Meistersaal,52.506111111111004,13.376944444444002,3044,Köthener Straße
Französische Straße (Berlin U-Bahn),52.514722222222005,13.389166666666998,3197,Französische Straße
Ishtar Gate,32.543333333333,44.422222222222004,205029,
Berlin Jannowitzbrücke station,52.514638,13.418389000000001,4132,Alexanderstraße
Soviet War Memorial (Treptower Park),52.4875,13.468333333333002,70521,Alt-Treptow
Bierpinsel,52.461388888889,13.324444444444001,7573,Schloßstraße
Böckler Park,52.4972,13.4079,1140,Prinzenstraße
Spreewald,51.913888888889,13.926388888889,26703,
Friedrich-Wilhelm-Platz (Berlin U-Bahn),52.471944444444,13.328611111111,1542,Friedrich-Wilhelm-Platz
Germany,51.0,9.0,6513140,
Memorial to Homosexuals Persecuted Under Nazism,52.51325277777799,13.376316666666998,17430,Lennéstraße
Poststadion,52.53,13.359444444444001,8648,Lehrter Straße
Friedrichstadt (Berlin),52.508333333333,13.391666666667,8992,Schützenstraße
Bundesrat of Germany,52.50916666666701,13.381388888889001,152331,Leipziger Straße
Rosenthaler Platz (Berlin U-Bahn),52.53,13.401,4344,Brunnenstraße
Turmstraße (Berlin U-Bahn),52.525833333333,13.341388888889,2385,
Core Tex Records,52.503333333332996,13.412222222221999,3201,Oranienstraße
Tränenpalast,52.5208,13.3869,14747,Reichstagufer
Internationales Congress Centrum Berlin,52.504444444444,13.280555555555999,8118,Messedamm
Karl-Liebknecht-Straße,52.521388888889,13.407222222222,5655,Karl-Liebknecht-Straße
Berlin Beusselstraße station,52.53444399999999,13.329444,2006,Beusselstraße
Berlin-Wedding station,52.5425,13.366111111111,2405,Müllerstraße
Leipzig Panometer,51.314444444444,12.386666666666999,5398,Richard-Lehmann-Straße
Mendelssohn-Bartholdy-Park (Berlin U-Bahn),52.503888888889,13.375,2553,Gabriele-Tergit-Promenade
Südstern (Berlin U-Bahn),52.489444444444,13.407777777778001,1929,Südstern
Berlin Westhafen station,52.536,13.344000000000001,2139,An der Putlitzbrücke
Tropical Islands Resort,52.0375,13.748611111111,80408,Tropical-Island-Allee
Wannsee,52.416666666667005,13.15,44259,Hohenzollernstraße
Soviet War Memorial (Schönholzer Heide),52.5816666667,13.3725,8765,Waldsteg
Birkenstraße (Berlin U-Bahn),52.532222222222,13.341388888889,2205,Wilhelmshavener Straße
Gleisdreieck (Berlin U-Bahn),52.498333333332994,13.375277777778,6652,Luckenwalder Straße
Hausvogteiplatz (Berlin U-Bahn),52.513055555556,13.396666666666999,2281,Hausvogteiplatz
Wilhelmstrasse,52.509722222222,13.384166666667,17412,Leipziger Straße
Bauhaus Archive,52.506111111111004,13.354166666666998,24991,Klingelhöferstraße
Sophienkirche (Berlin),52.525555555556004,13.4,3536,Sophienstraße
Görlitzer Bahnhof (Berlin U-Bahn),52.498999999999995,13.427999999999999,3306,Waldemarstraße
Adenauerplatz (Berlin U-Bahn),52.5,13.307222222221998,2823,Kurfürstendamm
Walther-Schreiber-Platz (Berlin U-Bahn),52.466111111111005,13.328333333333001,2293,Bundesallee
