wiki_name,lat,lon,views,suburb,roads
Saint Petersburg,59.9375,30.308611111111002,2227236,,Адмиралтейский проезд
Hermitage Museum,59.941,30.3151,333937,,Дворцовая набережная
Winter Palace,59.9404,30.3139,327275,,Шуваловский проезд
Peterhof Palace,59.883333333333,29.9,162386,Заячий Ремиз,Прудовая улица
Saint Petersburg State University,59.942,30.299,116774,,Филологический переулок
Russian cruiser Aurora,59.955277777777994,30.338055555556,108257,Петроградская сторона,Петроградская набережная
Peter and Paul Fortress,59.95,30.316999999999997,100639,,Петропавловская крепость
Saint Isaac's Cathedral,59.9341,30.3062,94056,,Малая Морская улица
Leningrad Oblast,60.05,31.75,83512,,
Bronze Horseman,59.9364,30.3022,74029,,Адмиралтейская набережная
Neva River,59.963888888888995,30.222222222221998,58092,,
Mariinsky Theatre,59.925555555556,30.296111111111003,57805,,Театральная площадь
Nevsky Prospect,59.9318,30.3527,42388,,Невский проспект
Petrovsky Stadium,59.951944444443996,30.286388888888997,39564,,
Palace Square,59.939166666667006,30.315833333333,36733,,Дворцовая площадь
Kunstkamera,59.941666666667004,30.304444444443998,33306,Коломна,Университетская набережная
ITMO University,59.9564,30.31,31439,Петроградская сторона,Кронверкский проспект
"Saints Peter and Paul Cathedral, Saint Petersburg",59.9502,30.3164,29922,,Петропавловская крепость
Imperial Academy of Arts,59.937509999999996,30.29022,27593,,Университетская набережная
Saint Petersburg Mosque,59.955247,30.323896,24676,Петроградская сторона,Кронверкский проспект
Finland Station,59.955555555556,30.356666666667,23383,Выборгская сторона,
Saint Petersburg Conservatory,59.926,30.2982,22708,,
Alexander Column,59.939166666667006,30.315833333333,21834,,Дворцовая площадь
National Library of Russia,59.933611111111,30.335555555556002,20415,Апраксин двор,Садовая улица
Hotel Astoria (Saint Petersburg),59.933,30.309,20050,,Большая Морская улица
Kirov Plant,59.878655,30.258429,20029,,проспект Стачек
"Admiralty building, Saint Petersburg",59.937601,30.308576000000002,19611,,Адмиралтейский проезд
Vasilyevsky Island,59.94,30.26,18980,,Средний проспект В.О.
General Staff Building (Saint Petersburg),59.9381,30.3172,18192,,
"Trinity Cathedral, Saint Petersburg",59.916111111111,30.305833333333002,15658,Коломна,
Stroganov Palace,59.935742000000005,30.320774,15194,Апраксин двор,Невский проспект
Mariinsky Palace,59.930833333333,30.309444444443997,13902,,набережная реки Мойки
First Pavlov State Medical University of St. Petersburg,59.9667,30.3167,13011,Петроградская сторона,улица Льва Толстого
New Holland Island,59.928999999999995,30.29,12981,,набережная Адмиралтейского канала
Krestovsky Island,59.97,30.26,12565,Острова,Рюхина улица
Palace Embankment,59.94123199999999,30.312628999999998,12261,,Дворцовая набережная
Palace Bridge,59.941148999999996,30.308104999999998,11657,,Дворцовый мост
Yubileyny Sports Palace,59.950277777778,30.291944444444,11302,Петроградская сторона,проспект Добролюбова
Grand Choral Synagogue,59.925,30.291999999999998,10584,Коломна,улица Декабристов
Old Saint Petersburg Stock Exchange and Rostral Columns,59.943333333332994,30.304444444443998,10399,Апраксин двор,Биржевая площадь
Yelagin Palace,59.9793,30.27,10285,Острова,1-й Елагин мост
Chesme Church,59.856666666667,30.330833333333,10096,Средняя Рогатка,улица Ленсовета
Herzen University,59.933888888889,30.319444444444,10071,Апраксин двор,набережная реки Мойки
Hermitage Theatre,59.942614,30.317794,9918,,Шуваловский проезд
Tekhnologichesky Institut (Saint Petersburg Metro),59.916388888888996,30.318611111111004,9632,Апраксин двор,Московский проспект
Big port Saint Petersburg,59.880555555556,30.199166666666997,9169,Турухтанные острова,дорога в Угольную гавань
"Military Historical Museum of Artillery, Engineers and Signal Corps",59.9539,30.3138,8800,Петроградская сторона,
Sennaya Square,59.927,30.318,8654,,Сенная площадь
Fontanka River,59.916666666667005,30.278333333333002,8628,Коломна,площадь Репина
Saint Petersburg Botanical Garden,59.97,30.324,8283,,улица Профессора Попова
Avtovo (Saint Petersburg Metro),59.867325,30.261352777778,8225,Автово,проспект Стачек
St. Nicholas Naval Cathedral,59.922222222222004,30.300277777778,7929,Коломна,набережная канала Грибоедова
Monument to Nicholas I,59.931944444444,30.308333333333,7901,,Малая Морская улица
Moyka River,59.926666666667,30.276111111111003,7301,Коломна,набережная реки Мойки
Saint Petersburg Sports and Concert Complex,59.869166666667006,30.341944444444,7007,,проспект Юрия Гагарина
Menshikov Palace (Saint Petersburg),59.93899999999999,30.296,6869,,Университетская набережная
S.M. Kirov Military Medical Academy,59.957221999999994,30.350833,6536,Выборгская сторона,Клиническая улица
Twelve Collegia,59.9416,30.2993,6301,,Филологический переулок
Zoological Museum of the Zoological Institute of the Russian Academy of Sciences,59.9426,30.3056,5944,Апраксин двор,Университетская набережная
Angleterre Hotel,59.9334,30.3086,5897,,Малая Морская улица
"Trinity Bridge, Saint Petersburg",59.948611111111,30.328888888888997,5702,Петроградская сторона,Троицкий мост
Saint Petersburg State Pediatric Medical University,59.977447,30.340325,5539,Выборгская сторона,Кантемировская улица
Baltic State Technical University,59.9164,30.3167,5485,Апраксин двор,1-я Красноармейская улица
Lobanov-Rostovsky Palace,59.93472222222201,30.308055555556003,5345,,Вознесенский проспект
Erarta,59.9321,30.2514,5120,Гавань,28-29-я линии В.О.
Saint-Petersburg State University of Architecture and Civil Engineering,59.914722222222004,30.315555555556003,5093,Апраксин двор,3-я Красноармейская улица
Park Pobedy (Saint Petersburg Metro),59.866361111111004,30.321802777778,5068,Ближняя Рогатка,Московский проспект
Neva Bay,59.95,30.0,5048,,
Moskovskaya (Saint Petersburg Metro),59.852191666667004,30.322205555556003,5041,Средняя Рогатка,Московская площадь
Saint Petersburg State University of Aerospace Instrumentation,59.929444444444,30.296111111111003,4937,,улица Труда
Sibur Arena,59.9715,30.2267,4742,,Футбольная аллея
Leningrad Zoo,59.952490000000004,30.30868,4345,Петроградская сторона,Кронверкская набережная
Varshavsky railway station,59.9077,30.3072,4299,,набережная Обводного канала
Datsan Gunzechoinei,59.9836,30.2558,4233,Новая Деревня,Приморский проспект
Ploshchad Lenina (Saint Petersburg Metro),59.956666666667005,30.355555555556002,4188,Выборгская сторона,
Pargolovo,60.083999999999996,30.256999999999998,4117,Кабаловка,Железнодорожная улица
Yelagin Island,59.979444444444,30.260277777778,4077,Острова,
Sportivnaya (Saint Petersburg Metro),59.952082999999995,30.290611,3814,Петроградская сторона,проспект Добролюбова
Alexander Garden (Saint Petersburg),59.936944444443995,30.309444444443997,3516,,Адмиралтейский проезд
Saint Petersburg Mining University,59.929230000000004,30.26945,3484,,20-21-я линии В.О.
Universitetskaya Embankment,59.9392,30.2984,3387,,Университетская набережная
Kamenny Islands,59.98,30.29,3365,Острова,2-я Берёзовая аллея
Petrogradsky District,59.95,30.3,3313,Петроградская сторона,улица Яблочкова
Krestovsky Ostrov (Saint Petersburg Metro),59.97178100000001,30.259442,3310,Острова,Рюхина улица
English Embankment,59.9341,30.2932,3213,,Английская набережная
Passenger Port of St. Petersburg,59.94666666666701,30.192222222222,3206,Морской,
Petrogradskaya (Saint Petersburg Metro),59.966388888889,30.311388888889,3088,Петроградская сторона,Каменноостровский проспект
Narvskaya,59.901208333332995,30.274902777778,3068,,
Admiralteysky District,59.916666666667005,30.3,2864,Коломна,набережная реки Фонтанки
Hermitage Bridge,59.94268,30.31683,2804,,
Vasileostrovsky District,59.943888888889,30.241666666666998,2756,,
Bolshaya Neva River,59.934,30.283,2705,,набережная Лейтенанта Шмидта
Baltiyskaya (Saint Petersburg Metro),59.907213888889,30.299516666667,2524,,площадь Балтийского вокзала
Esders and Scheefhaals building,59.933055555556,30.314166666667,2501,Апраксин двор,набережная реки Мойки
Potseluev Bridge,59.92833333333299,30.295,2347,,Поцелуев мост
Staraya Derevnya (Saint Petersburg Metro),59.989611,30.255111,2311,,Торфяная дорога
"Moskovsky District, Saint Petersburg",59.816666666667004,30.3,2202,Авиагородок,Штурманская улица
Red Bridge (Saint Petersburg),59.9331,30.3152,2103,Апраксин двор,набережная реки Мойки
Prospekt Prosvescheniya (Saint Petersburg Metro),60.051441666667,30.332488888889,1941,,проспект Энгельса
"Kirovsky District, Saint Petersburg",59.866666666667,30.233333333333,1855,Турухтанные острова,
Chkalovskaya (Saint Petersburg Metro),59.961056000000006,30.292028000000002,1815,Петроградская сторона,Большая Зеленина улица
Moskovsky Victory Park,59.869166666667006,30.328611111111,1814,Ближняя Рогатка,Кузнецовская улица
Elektrosila (Saint Petersburg Metro),59.879202777778,30.318644444443997,1732,Ближняя Рогатка,Московский проспект
Annunciation Bridge,59.934653000000004,30.289695000000002,1682,,Благовещенский мост
Prospekt Bolshevikov (Saint Petersburg Metro),59.919917000000005,30.46675,1558,,улица Коллонтай
Ulitsa Dybenko (Saint Petersburg Metro),59.90744399999999,30.483356,1554,,улица Дыбенко
Kanonersky Tunnel,59.903611111111005,30.224444444444,1290,,Канонерский тоннель
Baltiysky railway station,59.9071,30.2988,1237,,набережная Обводного канала
Yakhtennaya,59.991666666667,30.054444444443998,1101,,
Youth Theatre on the Fontanka,59.918888888889,30.313055555556,907,Апраксин двор,набережная реки Фонтанки
Gazprom Arena,59.972952777778,30.220533333333,179,,Футбольная аллея
